header:
  stamp:
    sec: 16 6495 9677
    nanosec: 840318918
  frame_id: vive/reference
child_frame_id: vive/tracker_1
transform:
  translation:
    x: 0.45067185078152483
    y: -2.216365541287244
    z: -0.1482951883117809
  rotation:
    x: -0.14716259046164049
    y: -0.04264334993923477
    z: 0.8973896878628744
    w: -0.41378241248481334
---
header:
  stamp:
    sec: 1664959677
    nanosec: 860318184
  frame_id: vive/reference
child_frame_id: vive/tracker_1
transform:
  translation:
    x: 0.4506194371702825
    y: -2.2165630293736673
    z: -0.14829743301411247
  rotation:
    x: -0.1471616898316664
    y: -0.04269515508537261
    z: 0.8973583573501022
    w: -0.4138453559577353
---
header:
  stamp:
    sec: 1664959677
    nanosec: 880337000
  frame_id: vive/reference
child_frame_id: vive/tracker_1
transform:
  translation:
    x: 0.45061819861235475
    y: -2.2165134910335906
    z: -0.14840252772713036
  rotation:
    x: -0.14713710506962907
    y: -0.042691585246549646
    z: 0.8973833999293725
    w: -0.4138001632520324
---
header:
  stamp:
    sec: 1664959677
    nanosec: 900332689
  frame_id: vive/reference
child_frame_id: vive/tracker_1
transform:
  translation:
    x: 0.45054182467016024
    y: -2.216587853583831
    z: -0.1484651292853605
  rotation:
    x: -0.14714309925761276
    y: -0.04257902872854749
    z: 0.8974260118796902
    w: -0.4137172079124136
---
header:
  stamp:
    sec: 1664959677
    nanosec: 920318365
  frame_id: vive/reference
child_frame_id: vive/tracker_1
transform:
  translation:
    x: 0.450649375256299
    y: -2.216549953147424
    z: -0.14843352426038958
  rotation:
    x: -0.14714893516889266
    y: -0.04253614415562865
    z: 0.8974177730784354
    w: -0.41373736842925
---
header:
  stamp:
    sec: 1664959677
    nanosec: 940322161
  frame_id: vive/reference
child_frame_id: vive/tracker_1
transform:
  translation:
    x: 0.45061111357706873
    y: -2.2164983987184836
    z: -0.14843085419831725
  rotation:
    x: -0.14714130189463315
    y: -0.04249562825908201
    z: 0.8974074205941921
    w: -0.413766715876023
---
header:
  stamp:
    sec: 1664959677
    nanosec: 960367918
  frame_id: vive/reference
child_frame_id: vive/tracker_1
transform:
  translation:
    x: 0.4505670252280385
    y: -2.216400331331035
    z: -0.14846504507309577
  rotation:
    x: -0.1471747018643646
    y: -0.0425121139968703
    z: 0.8974192568737736
    w: -0.41372747729910003
---
header:
  stamp:
    sec: 1664959677
    nanosec: 980337858
  frame_id: vive/reference
child_frame_id: vive/tracker_1
transform:
  translation:
    x: 0.4506804233417465
    y: -2.2164097043627873
    z: -0.14836072204349593
  rotation:
    x: -0.14715980141437673
    y: -0.04254389427295352
    z: 0.8974119012518054
    w: -0.4137454716009513
---
header:
  stamp:
    sec: 1664959678
    nanosec: 318289
  frame_id: vive/reference
child_frame_id: vive/tracker_1
transform:
  translation:
    x: 0.45066161156603335
    y: -2.216446727900859
    z: -0.14836513138851037
  rotation:
    x: -0.14713715562984747
    y: -0.04257846241562538
    z: 0.8973877274773028
    w: -0.4138023561591634
---
header:
  stamp:
    sec: 1664959678
    nanosec: 20316601
  frame_id: vive/reference
child_frame_id: vive/tracker_1
transform:
  translation:
    x: 0.45068171756333864
    y: -2.216455167544721
    z: -0.14835305759689899
  rotation:
    x: -0.14715343016674098
    y: -0.042636877443131216
    z: 0.8973729838947266
    w: -0.41382255509847565
---
header:
  stamp:
    sec: 1664959678
    nanosec: 40348530
  frame_id: vive/reference
child_frame_id: vive/tracker_1
transform:
  translation:
    x: 0.45069626438441124
    y: -2.2164289924278577
    z: -0.14852567772606928
  rotation:
    x: -0.14714420153962782
    y: -0.042632136090226286
    z: 0.8973485854139938
    w: -0.41387925444141627
---
header:
  stamp:
    sec: 1664959678
    nanosec: 60312986
  frame_id: vive/reference
child_frame_id: vive/tracker_1
transform:
  translation:
    x: 0.45066680841635987
    y: -2.2164488147798442
    z: -0.14850247308374032
  rotation:
    x: -0.14712068913326498
    y: -0.04254913343323527
    z: 0.8973814594652625
    w: -0.41382488361565073
---
header:
  stamp:
    sec: 1664959678
    nanosec: 80313921
  frame_id: vive/reference
child_frame_id: vive/tracker_1
transform:
  translation:
    x: 0.4506620859370136
    y: -2.2165096452320254
    z: -0.14845298492210324
  rotation:
    x: -0.14712123948186423
    y: -0.0426669150590584
    z: 0.8973668959965218
    w: -0.4138441224551528
---
header:
  stamp:
    sec: 1664959678
    nanosec: 100314617
  frame_id: vive/reference
child_frame_id: vive/tracker_1
transform:
  translation:
    x: 0.4506666732903055
    y: -2.216367527867941
    z: -0.14845249949283756
  rotation:
    x: -0.147129194839261
    y: -0.04261693016574225
    z: 0.8973571206025837
    w: -0.41386762001241284
---
header:
  stamp:
    sec: 1664959678
    nanosec: 120324850
  frame_id: vive/reference
child_frame_id: vive/tracker_1
transform:
  translation:
    x: 0.4508022338638795
    y: -2.2163173179446685
    z: -0.14825494950515639
  rotation:
    x: -0.1471626476127344
    y: -0.042608076791920635
    z: 0.897382701724708
    w: -0.41380116956840934
---
header:
  stamp:
    sec: 1664959678
    nanosec: 140318632
  frame_id: vive/reference
child_frame_id: vive/tracker_1
transform:
  translation:
    x: 0.4507488839513425
    y: -2.2164386129941493
    z: -0.14822222106407112
  rotation:
    x: -0.14716092309404977
    y: -0.04268986596444874
    z: 0.8973445243631748
    w: -0.41387613182982363
---
header:
  stamp:
    sec: 1664959678
    nanosec: 160332680
  frame_id: vive/reference
child_frame_id: vive/tracker_1
transform:
  translation:
    x: 0.4507796837963778
    y: -2.2165167314757834
    z: -0.14819769280572004
  rotation:
    x: -0.1471305091606484
    y: -0.042679339878435946
    z: 0.8973300429234015
    w: -0.4139194456872036
---
header:
  stamp:
    sec: 1664959678
    nanosec: 180297613
  frame_id: vive/reference
child_frame_id: vive/tracker_1
transform:
  translation:
    x: 0.4506775659683815
    y: -2.2164500204765867
    z: -0.14830143960642594
  rotation:
    x: -0.14709453524553495
    y: -0.04263168207649046
    z: 0.8973869023053898
    w: -0.4138138723045422
---
header:
  stamp:
    sec: 1664959678
    nanosec: 200327873
  frame_id: vive/reference
child_frame_id: vive/tracker_1
transform:
  translation:
    x: 0.4505591963183131
    y: -2.2165392168791977
    z: -0.14840744372697712
  rotation:
    x: -0.14707939738220416
    y: -0.04260466411005759
    z: 0.8973755509911628
    w: -0.41384663425284424
---
header:
  stamp:
    sec: 1664959678
    nanosec: 220347881
  frame_id: vive/reference
child_frame_id: vive/tracker_1
transform:
  translation:
    x: 0.45042347847671693
    y: -2.2166329385170194
    z: -0.1484662180022216
  rotation:
    x: -0.14701265692438603
    y: -0.042616406734207274
    z: 0.8973654564591005
    w: -0.41389103755972345
---
header:
  stamp:
    sec: 1664959678
    nanosec: 240332127
  frame_id: vive/reference
child_frame_id: vive/tracker_1
transform:
  translation:
    x: 0.45064305767612756
    y: -2.21643691020069
    z: -0.1483662115012332
  rotation:
    x: -0.14713272819062617
    y: -0.04259874161073776
    z: 0.8973761571352857
    w: -0.4138270207633521
---
header:
  stamp:
    sec: 1664959678
    nanosec: 260349512
  frame_id: vive/reference
child_frame_id: vive/tracker_1
transform:
  translation:
    x: 0.45075441756292967
    y: -2.216376213027668
    z: -0.14824644436398504
  rotation:
    x: -0.14717969291647748
    y: -0.042589498531798
    z: 0.8973783172402261
    w: -0.4138064984629034
---
header:
  stamp:
    sec: 1664959678
    nanosec: 280342102
  frame_id: vive/reference
child_frame_id: vive/tracker_1
transform:
  translation:
    x: 0.45075411576841007
    y: -2.2165064956754135
    z: -0.14834435805686974
  rotation:
    x: -0.14717528806435504
    y: -0.04259609341921192
    z: 0.8974048622410312
    w: -0.41374988772574045
---
header:
  stamp:
    sec: 1664959678
    nanosec: 300314426
  frame_id: vive/reference
child_frame_id: vive/tracker_1
transform:
  translation:
    x: 0.45067434314697974
    y: -2.2165810355841886
    z: -0.1484603915410876
  rotation:
    x: -0.14716321697358176
    y: -0.04265192198192436
    z: 0.8973915710413221
    w: -0.4137772200027601
---
header:
  stamp:
    sec: 1664959678
    nanosec: 320320368
  frame_id: vive/reference
child_frame_id: vive/tracker_1
transform:
  translation:
    x: 0.4507281872696993
    y: -2.216586565088403
    z: -0.14842897095401142
  rotation:
    x: -0.14719444755339556
    y: -0.04265229500153425
    z: 0.8973756034703482
    w: -0.41380071210062774
---
header:
  stamp:
    sec: 1664959678
    nanosec: 340358257
  frame_id: vive/reference
child_frame_id: vive/tracker_1
transform:
  translation:
    x: 0.45077903059345137
    y: -2.2163862554922
    z: -0.14835031860479786
  rotation:
    x: -0.14721809045197692
    y: -0.04265172964088931
    z: 0.8973711358216475
    w: -0.41380203664628556
---
header:
  stamp:
    sec: 1664959678
    nanosec: 360364437
  frame_id: vive/reference
child_frame_id: vive/tracker_1
transform:
  translation:
    x: 0.45069740262419145
    y: -2.2164415539001614
    z: -0.14841105986089076
  rotation:
    x: -0.14719696856445774
    y: -0.042591186442599877
    z: 0.8973889001811216
    w: -0.413777255905246
---
header:
  stamp:
    sec: 1664959678
    nanosec: 380322933
  frame_id: vive/reference
child_frame_id: vive/tracker_1
transform:
  translation:
    x: 0.45063884217045236
    y: -2.2165428049112563
    z: -0.14847578930062122
  rotation:
    x: -0.14721457393877108
    y: -0.04261350388621726
    z: 0.8973691287914984
    w: -0.41381162305681957
---
header:
  stamp:
    sec: 1664959678
    nanosec: 400315523
  frame_id: vive/reference
child_frame_id: vive/tracker_1
transform:
  translation:
    x: 0.45065460330744833
    y: -2.216503370614314
    z: -0.14840268222272757
  rotation:
    x: -0.14723856582912664
    y: -0.04264336760735046
    z: 0.8973734133379416
    w: -0.41379066253796937
---
header:
  stamp:
    sec: 1664959678
    nanosec: 420318842
  frame_id: vive/reference
child_frame_id: vive/tracker_1
transform:
  translation:
    x: 0.450741139460044
    y: -2.216443674573527
    z: -0.1483857801325965
  rotation:
    x: -0.14722125729698904
    y: -0.04266233820914464
    z: 0.8973743387355315
    w: -0.41379288253702995
---
header:
  stamp:
    sec: 1664959678
    nanosec: 440330029
  frame_id: vive/reference
child_frame_id: vive/tracker_1
transform:
  translation:
    x: 0.4506599752734426
    y: -2.216538946319292
    z: -0.14847038133803236
  rotation:
    x: -0.1472308183482648
    y: -0.04267483068534256
    z: 0.8973781072314828
    w: -0.41378002717858475
---
header:
  stamp:
    sec: 1664959678
    nanosec: 460324049
  frame_id: vive/reference
child_frame_id: vive/tracker_1
transform:
  translation:
    x: 0.45064582143577403
    y: -2.2164106985046588
    z: -0.14845874061429276
  rotation:
    x: -0.14720439570229837
    y: -0.04266686880924367
    z: 0.8973928289914694
    w: -0.4137583075452283
---
header:
  stamp:
    sec: 1664959678
    nanosec: 480326653
  frame_id: vive/reference
child_frame_id: vive/tracker_1
transform:
  translation:
    x: 0.4506705622958298
    y: -2.2165223123552806
    z: -0.14831369478258916
  rotation:
    x: -0.14720041492310565
    y: -0.0427022173832966
    z: 0.8973468834925707
    w: -0.4138557441059955
---
header:
  stamp:
    sec: 1664959678
    nanosec: 500326395
  frame_id: vive/reference
child_frame_id: vive/tracker_1
transform:
  translation:
    x: 0.4507300147472393
    y: -2.216442522128171
    z: -0.14835718016778499
  rotation:
    x: -0.1472145765519564
    y: -0.04268152941374295
    z: 0.897354104545917
    w: -0.4138371764597816
---
header:
  stamp:
    sec: 1664959678
    nanosec: 520354271
  frame_id: vive/reference
child_frame_id: vive/tracker_1
transform:
  translation:
    x: 0.4506934288365849
    y: -2.2164514430855022
    z: -0.14839253250240558
  rotation:
    x: -0.14720977540411562
    y: -0.04267823052386377
    z: 0.8973641830634527
    w: -0.4138173692084448
---
header:
  stamp:
    sec: 1664959678
    nanosec: 540322781
  frame_id: vive/reference
child_frame_id: vive/tracker_1
transform:
  translation:
    x: 0.4506937939001856
    y: -2.2164552332224288
    z: -0.14844312157925943
  rotation:
    x: -0.1471870805473316
    y: -0.04261840907744266
    z: 0.8973784820818418
    w: -0.41380058949591825
---
header:
  stamp:
    sec: 1664959678
    nanosec: 560325384
  frame_id: vive/reference
child_frame_id: vive/tracker_1
transform:
  translation:
    x: 0.4507370576521217
    y: -2.2164920849873964
    z: -0.14843863828618487
  rotation:
    x: -0.14719979547271933
    y: -0.04257775245870338
    z: 0.8973939756558242
    w: -0.41376664521954115
---
header:
  stamp:
    sec: 1664959678
    nanosec: 580316067
  frame_id: vive/reference
child_frame_id: vive/tracker_1
transform:
  translation:
    x: 0.4507202398209029
    y: -2.216583721985901
    z: -0.14842075454128922
  rotation:
    x: -0.14719895143750783
    y: -0.042674156355272386
    z: 0.8973847409288316
    w: -0.41377706183546653
---
header:
  stamp:
    sec: 1664959678
    nanosec: 600338459
  frame_id: vive/reference
child_frame_id: vive/tracker_1
transform:
  translation:
    x: 0.45067317873764234
    y: -2.2164964585733626
    z: -0.1483545561603341
  rotation:
    x: -0.14719746052789778
    y: -0.04268962730794193
    z: 0.8973640756630887
    w: -0.4138208227800833
---
header:
  stamp:
    sec: 1664959678
    nanosec: 620327234
  frame_id: vive/reference
child_frame_id: vive/tracker_1
transform:
  translation:
    x: 0.45068155459547676
    y: -2.2164630008248305
    z: -0.14828407548934308
  rotation:
    x: -0.14720481544878994
    y: -0.04264983991450297
    z: 0.8973724011133037
    w: -0.41380420710736543
---
header:
  stamp:
    sec: 1664959678
    nanosec: 640311718
  frame_id: vive/reference
child_frame_id: vive/tracker_1
transform:
  translation:
    x: 0.45073557230796957
    y: -2.216434600162558
    z: -0.1482426773504959
  rotation:
    x: -0.1471546275454892
    y: -0.04264824630349684
    z: 0.8973896852905936
    w: -0.41378472620970286
---
header:
  stamp:
    sec: 1664959678
    nanosec: 660351992
  frame_id: vive/reference
child_frame_id: vive/tracker_1
transform:
  translation:
    x: 0.45072787710241236
    y: -2.21655506871152
    z: -0.14827058206038757
  rotation:
    x: -0.14715530925764647
    y: -0.0426458676816143
    z: 0.8973722866895545
    w: -0.41382246983349086
---
header:
  stamp:
    sec: 1664959678
    nanosec: 680326939
  frame_id: vive/reference
child_frame_id: vive/tracker_1
transform:
  translation:
    x: 0.4506940810937292
    y: -2.2165390615688314
    z: -0.14834807183808918
  rotation:
    x: -0.14712995885090735
    y: -0.042640943517063185
    z: 0.8973876569710533
    w: -0.413798667626229
---
header:
  stamp:
    sec: 1664959678
    nanosec: 700312376
  frame_id: vive/reference
child_frame_id: vive/tracker_1
transform:
  translation:
    x: 0.45063985680229
    y: -2.2165692848173295
    z: -0.14835628112854193
  rotation:
    x: -0.14710160800836264
    y: -0.042691916358980314
    z: 0.8973650172050713
    w: -0.4138526161248415
---
header:
  stamp:
    sec: 1664959678
    nanosec: 720314980
  frame_id: vive/reference
child_frame_id: vive/tracker_1
transform:
  translation:
    x: 0.4505980362864752
    y: -2.2165387477949094
    z: -0.14838586649741003
  rotation:
    x: -0.14706786815764566
    y: -0.042724275457084016
    z: 0.8973691956927394
    w: -0.41385218843490307
---
header:
  stamp:
    sec: 1664959678
    nanosec: 740345955
  frame_id: vive/reference
child_frame_id: vive/tracker_1
transform:
  translation:
    x: 0.4506888187371205
    y: -2.2163995464923776
    z: -0.14827149903083958
  rotation:
    x: -0.14702374772470872
    y: -0.04269999788685286
    z: 0.8973537331888908
    w: -0.41390388506722614
---
header:
  stamp:
    sec: 1664959678
    nanosec: 760318756
  frame_id: vive/reference
child_frame_id: vive/tracker_1
transform:
  translation:
    x: 0.450781519070939
    y: -2.2164045235616783
    z: -0.14823515277988486
  rotation:
    x: -0.14702985670871643
    y: -0.04263806584470137
    z: 0.8973813958204087
    w: -0.41384812245795655
---
header:
  stamp:
    sec: 1664959678
    nanosec: 780342579
  frame_id: vive/reference
child_frame_id: vive/tracker_1
transform:
  translation:
    x: 0.4508044012289505
    y: -2.216453977580742
    z: -0.14821747147369768
  rotation:
    x: -0.14701141516010507
    y: -0.042646535388159074
    z: 0.8973776957955284
    w: -0.41386182937598404
---
header:
  stamp:
    sec: 1664959678
    nanosec: 800333023
  frame_id: vive/reference
child_frame_id: vive/tracker_1
transform:
  translation:
    x: 0.4508196166321141
    y: -2.2165127681200687
    z: -0.14815678575298952
  rotation:
    x: -0.14701610736756188
    y: -0.04270008782968812
    z: 0.8973566600059129
    w: -0.4139002810228423
---
header:
  stamp:
    sec: 1664959678
    nanosec: 820317745
  frame_id: vive/reference
child_frame_id: vive/tracker_1
transform:
  translation:
    x: 0.4507578727516639
    y: -2.2166406984255627
    z: -0.14835435065856517
  rotation:
    x: -0.14698002039515706
    y: -0.04274702564996244
    z: 0.8973708864864077
    w: -0.41387739946411517
---
header:
  stamp:
    sec: 1664959678
    nanosec: 840352774
  frame_id: vive/reference
child_frame_id: vive/tracker_1
transform:
  translation:
    x: 0.4507737570013093
    y: -2.216572137511258
    z: -0.14834284797378716
  rotation:
    x: -0.14700236241613862
    y: -0.042773568757216746
    z: 0.8973506530817379
    w: -0.41391058243818135
---
header:
  stamp:
    sec: 1664959678
    nanosec: 860334873
  frame_id: vive/reference
child_frame_id: vive/tracker_1
transform:
  translation:
    x: 0.4507111168995366
    y: -2.216386899405185
    z: -0.14833402624027459
  rotation:
    x: -0.14696528632481543
    y: -0.04276748971363492
    z: 0.8973528709888761
    w: -0.41391953913251556
---
header:
  stamp:
    sec: 1664959678
    nanosec: 880322933
  frame_id: vive/reference
child_frame_id: vive/tracker_1
transform:
  translation:
    x: 0.4506418183636576
    y: -2.216378339325894
    z: -0.14832811799016055
  rotation:
    x: -0.14697153227208504
    y: -0.04275699765596422
    z: 0.8973599007067121
    w: -0.4139032230214941
---
header:
  stamp:
    sec: 1664959678
    nanosec: 900316238
  frame_id: vive/reference
child_frame_id: vive/tracker_1
transform:
  translation:
    x: 0.45057184365239533
    y: -2.2165686120149344
    z: -0.1483922408028957
  rotation:
    x: -0.14694575706112561
    y: -0.04276621861127225
    z: 0.8973789664918219
    w: -0.41387006214842204
---
header:
  stamp:
    sec: 1664959678
    nanosec: 920316935
  frame_id: vive/reference
child_frame_id: vive/tracker_1
transform:
  translation:
    x: 0.4507352019438209
    y: -2.2164596907913277
    z: -0.14829587771035646
  rotation:
    x: -0.14701032199781916
    y: -0.04279555508180888
    z: 0.8973857430081784
    w: -0.4138293673434155
---
header:
  stamp:
    sec: 1664959678
    nanosec: 940346718
  frame_id: vive/reference
child_frame_id: vive/tracker_1
transform:
  translation:
    x: 0.45068579487045723
    y: -2.216439840161797
    z: -0.1483023159732766
  rotation:
    x: -0.1470014942937598
    y: -0.04280813946613915
    z: 0.897399380695632
    w: -0.4138016648827184
---
header:
  stamp:
    sec: 1664959678
    nanosec: 960341215
  frame_id: vive/reference
child_frame_id: vive/tracker_1
transform:
  translation:
    x: 0.45075600657144865
    y: -2.2165282949770524
    z: -0.14831389911545045
  rotation:
    x: -0.1470094229645278
    y: -0.04276916800975111
    z: 0.8974146835945677
    w: -0.4137696889114325
---
header:
  stamp:
    sec: 1664959678
    nanosec: 980316877
  frame_id: vive/reference
child_frame_id: vive/tracker_1
transform:
  translation:
    x: 0.4507447317943247
    y: -2.2165557183894524
    z: -0.14838483032605554
  rotation:
    x: -0.14702446798376495
    y: -0.04277656536196711
    z: 0.8974045957568528
    w: -0.41378542414998815
---
header:
  stamp:
    sec: 1664959679
    nanosec: 344515
  frame_id: vive/reference
child_frame_id: vive/tracker_1
transform:
  translation:
    x: 0.4507430029789681
    y: -2.216537724090016
    z: -0.14822063714157663
  rotation:
    x: -0.14699763741474503
    y: -0.04284079608653257
    z: 0.897396819126811
    w: -0.41380518979877035
---
header:
  stamp:
    sec: 1664959679
    nanosec: 20351410
  frame_id: vive/reference
child_frame_id: vive/tracker_1
transform:
  translation:
    x: 0.4507473472723935
    y: -2.216646781997187
    z: -0.14827802363170006
  rotation:
    x: -0.1469778327510607
    y: -0.04284960299158125
    z: 0.8973765887756289
    w: -0.4138551413082281
---
header:
  stamp:
    sec: 1664959679
    nanosec: 40324211
  frame_id: vive/reference
child_frame_id: vive/tracker_1
transform:
  translation:
    x: 0.4506484168258449
    y: -2.2166131572840277
    z: -0.14837179085453833
  rotation:
    x: -0.14698318418378875
    y: -0.04281020625016471
    z: 0.8973890546380747
    w: -0.4138303223289366
---
header:
  stamp:
    sec: 1664959679
    nanosec: 60338020
  frame_id: vive/reference
child_frame_id: vive/tracker_1
transform:
  translation:
    x: 0.4506635998627384
    y: -2.2166028148903254
    z: -0.1484040126980597
  rotation:
    x: -0.14695264426273819
    y: -0.04280454081901969
    z: 0.8973879580929631
    w: -0.4138441378642401
---
header:
  stamp:
    sec: 1664959679
    nanosec: 80316305
  frame_id: vive/reference
child_frame_id: vive/tracker_1
transform:
  translation:
    x: 0.45072630598916574
    y: -2.216511236978705
    z: -0.14841136169522473
  rotation:
    x: -0.14697069836559945
    y: -0.04281012353275587
    z: 0.8974052859351407
    w: -0.4137996119084129
---
header:
  stamp:
    sec: 1664959679
    nanosec: 100318193
  frame_id: vive/reference
child_frame_id: vive/tracker_1
transform:
  translation:
    x: 0.45071193610209526
    y: -2.21657549252183
    z: -0.14840598111787573
  rotation:
    x: -0.14698044712039798
    y: -0.0427386824027573
    z: 0.8974213295461064
    w: -0.4137686938599024
---
header:
  stamp:
    sec: 1664959679
    nanosec: 120319843
  frame_id: vive/reference
child_frame_id: vive/tracker_1
transform:
  translation:
    x: 0.45068148981341216
    y: -2.216614464464291
    z: -0.14837537853131932
  rotation:
    x: -0.14697321089911236
    y: -0.04270103718863369
    z: 0.8974159424270173
    w: -0.41378682506613784
---
header:
  stamp:
    sec: 1664959679
    nanosec: 140319347
  frame_id: vive/reference
child_frame_id: vive/tracker_1
transform:
  translation:
    x: 0.45076417467733765
    y: -2.216528242355048
    z: -0.14838480184052782
  rotation:
    x: -0.14698457962855382
    y: -0.04269816760447409
    z: 0.897427444204142
    w: -0.4137581178274744
---
header:
  stamp:
    sec: 1664959679
    nanosec: 160326719
  frame_id: vive/reference
child_frame_id: vive/tracker_1
transform:
  translation:
    x: 0.4506878458108934
    y: -2.216614964641332
    z: -0.14835244676001924
  rotation:
    x: -0.1469927072173997
    y: -0.04271694501079068
    z: 0.897411869794085
    w: -0.41378715064454813
---
header:
  stamp:
    sec: 1664959679
    nanosec: 180323362
  frame_id: vive/reference
child_frame_id: vive/tracker_1
transform:
  translation:
    x: 0.4506019071302918
    y: -2.216600704737755
    z: -0.14839830511960228
  rotation:
    x: -0.1469726896996269
    y: -0.042704373194511314
    z: 0.8973790085126315
    w: -0.4138667805814207
---
header:
  stamp:
    sec: 1664959679
    nanosec: 200313568
  frame_id: vive/reference
child_frame_id: vive/tracker_1
transform:
  translation:
    x: 0.4506197020681657
    y: -2.216544029127423
    z: -0.14825182286808358
  rotation:
    x: -0.14702149939994835
    y: -0.04269965726453309
    z: 0.8973806267362969
    w: -0.4138464341711856
---
header:
  stamp:
    sec: 1664959679
    nanosec: 220334291
  frame_id: vive/reference
child_frame_id: vive/tracker_1
transform:
  translation:
    x: 0.45060887363332003
    y: -2.2165207465632926
    z: -0.14832199119045075
  rotation:
    x: -0.14700562140649853
    y: -0.04271011906505384
    z: 0.8973718680011223
    w: -0.4138699497988332
---
header:
  stamp:
    sec: 1664959679
    nanosec: 240337610
  frame_id: vive/reference
child_frame_id: vive/tracker_1
transform:
  translation:
    x: 0.45059174724108275
    y: -2.216488221150684
    z: -0.14839413005616775
  rotation:
    x: -0.14698825069467902
    y: -0.0426881227265537
    z: 0.8973854451359105
    w: -0.41384895162825674
---
header:
  stamp:
    sec: 1664959679
    nanosec: 260349512
  frame_id: vive/reference
child_frame_id: vive/tracker_1
transform:
  translation:
    x: 0.4505450150025043
    y: -2.2165010075766305
    z: -0.14842417091293392
  rotation:
    x: -0.1470055799032195
    y: -0.042747201956114395
    z: 0.897360796449487
    w: -0.41389014511931843
---
header:
  stamp:
    sec: 1664959679
    nanosec: 280332088
  frame_id: vive/reference
child_frame_id: vive/tracker_1
transform:
  translation:
    x: 0.4506814593142956
    y: -2.2166040053983567
    z: -0.14840302662645044
  rotation:
    x: -0.14701694904027757
    y: -0.042712038987971435
    z: 0.8973597777428591
    w: -0.4138919770163001
---
header:
  stamp:
    sec: 1664959679
    nanosec: 300333023
  frame_id: vive/reference
child_frame_id: vive/tracker_1
transform:
  translation:
    x: 0.4507031927786176
    y: -2.216580630552542
    z: -0.14842018048818373
  rotation:
    x: -0.14701769069592263
    y: -0.0427512469667789
    z: 0.8973443342186767
    w: -0.41392111194962034
---
header:
  stamp:
    sec: 1664959679
    nanosec: 320338726
  frame_id: vive/reference
child_frame_id: vive/tracker_1
transform:
  translation:
    x: 0.4508143123715922
    y: -2.2165611146176496
    z: -0.14838727121964812
  rotation:
    x: -0.14699363471694543
    y: -0.04275045165645902
    z: 0.8973579448543565
    w: -0.41390028410687096
---
header:
  stamp:
    sec: 1664959679
    nanosec: 340320587
  frame_id: vive/reference
child_frame_id: vive/tracker_1
transform:
  translation:
    x: 0.45083294532577844
    y: -2.2165303551006046
    z: -0.14835748357367784
  rotation:
    x: -0.1470052741318209
    y: -0.042751746840020394
    z: 0.8973579045043183
    w: -0.4138960713706668
---
header:
  stamp:
    sec: 1664959679
    nanosec: 360336065
  frame_id: vive/reference
child_frame_id: vive/tracker_1
transform:
  translation:
    x: 0.45074451049792663
    y: -2.2165856644312347
    z: -0.14840371820472775
  rotation:
    x: -0.14701097449613199
    y: -0.04269750827779509
    z: 0.8973773229522155
    w: -0.4138575447285888
---
header:
  stamp:
    sec: 1664959679
    nanosec: 380341530
  frame_id: vive/reference
child_frame_id: vive/tracker_1
transform:
  translation:
    x: 0.45074798153788076
    y: -2.2166996584408407
    z: -0.14846684136455846
  rotation:
    x: -0.1469907899028668
    y: -0.04273843810497216
    z: 0.8973821482106088
    w: -0.413850022125418
---
header:
  stamp:
    sec: 1664959679
    nanosec: 400319099
  frame_id: vive/reference
child_frame_id: vive/tracker_1
transform:
  translation:
    x: 0.45076104855942334
    y: -2.2166891037117264
    z: -0.1483720816243248
  rotation:
    x: -0.146977566445872
    y: -0.042699926116677
    z: 0.8973625690011003
    w: -0.41390112841408966
---
header:
  stamp:
    sec: 1664959679
    nanosec: 420345783
  frame_id: vive/reference
child_frame_id: vive/tracker_1
transform:
  translation:
    x: 0.4506982258690455
    y: -2.216520580547329
    z: -0.148354567129811
  rotation:
    x: -0.1470205341585628
    y: -0.042704035984717253
    z: 0.8973844690661319
    w: -0.4138379921362164
---
header:
  stamp:
    sec: 1664959679
    nanosec: 440325260
  frame_id: vive/reference
child_frame_id: vive/tracker_1
transform:
  translation:
    x: 0.45073083094961386
    y: -2.216498746263931
    z: -0.1483346249004045
  rotation:
    x: -0.1470106421883982
    y: -0.042706485372398156
    z: 0.8973955309325572
    w: -0.4138172046141184
---
header:
  stamp:
    sec: 1664959679
    nanosec: 460320950
  frame_id: vive/reference
child_frame_id: vive/tracker_1
transform:
  translation:
    x: 0.45072351957264956
    y: -2.216617530433356
    z: -0.14843327985136634
  rotation:
    x: -0.14701784571119975
    y: -0.04260832108231724
    z: 0.897401196033117
    w: -0.4138124677123315
---
header:
  stamp:
    sec: 1664959679
    nanosec: 480317116
  frame_id: vive/reference
child_frame_id: vive/tracker_1
transform:
  translation:
    x: 0.450706945867956
    y: -2.2166767587850256
    z: -0.14843520887423622
  rotation:
    x: -0.14704619506325106
    y: -0.04254487850501776
    z: 0.8974036741044733
    w: -0.41380362442284113
---
header:
  stamp:
    sec: 1664959679
    nanosec: 500319481
  frame_id: vive/reference
child_frame_id: vive/tracker_1
transform:
  translation:
    x: 0.45075062385394316
    y: -2.216585440030787
    z: -0.14844761804883788
  rotation:
    x: -0.14705858719271342
    y: -0.04253957329757044
    z: 0.8974095982006308
    w: -0.4137868517476535
---
header:
  stamp:
    sec: 1664959679
    nanosec: 520326376
  frame_id: vive/reference
child_frame_id: vive/tracker_1
transform:
  translation:
    x: 0.4507224095143203
    y: -2.216465568795331
    z: -0.1484145505945409
  rotation:
    x: -0.1470683555116175
    y: -0.04253367737985314
    z: 0.8974053785544425
    w: -0.4137931716109641
---
header:
  stamp:
    sec: 1664959679
    nanosec: 540330648
  frame_id: vive/reference
child_frame_id: vive/tracker_1
transform:
  translation:
    x: 0.45074180876586456
    y: -2.216503332357477
    z: -0.14841571237768125
  rotation:
    x: -0.14706472620587346
    y: -0.04252300322082961
    z: 0.897424280900309
    w: -0.4137545764047625
---
header:
  stamp:
    sec: 1664959679
    nanosec: 560349941
  frame_id: vive/reference
child_frame_id: vive/tracker_1
transform:
  translation:
    x: 0.4506501337902351
    y: -2.216569368324697
    z: -0.14832347445779215
  rotation:
    x: -0.14703765811115949
    y: -0.04250497267432715
    z: 0.8974562917386449
    w: -0.4136966109244612
---
header:
  stamp:
    sec: 1664959679
    nanosec: 580327749
  frame_id: vive/reference
child_frame_id: vive/tracker_1
transform:
  translation:
    x: 0.4506819465819587
    y: -2.2165139150502755
    z: -0.1483119467453391
  rotation:
    x: -0.1470793284928545
    y: -0.04249011106196446
    z: 0.8974562124327657
    w: -0.4136835280178869
---
header:
  stamp:
    sec: 1664959679
    nanosec: 600315332
  frame_id: vive/reference
child_frame_id: vive/tracker_1
transform:
  translation:
    x: 0.45070752453813845
    y: -2.2165742485402182
    z: -0.1482934348276248
  rotation:
    x: -0.1470908144933764
    y: -0.04242460073647994
    z: 0.8974364114989215
    w: -0.41372905672378457
---
header:
  stamp:
    sec: 1664959679
    nanosec: 620347023
  frame_id: vive/reference
child_frame_id: vive/tracker_1
transform:
  translation:
    x: 0.45068393581400357
    y: -2.2165755008186525
    z: -0.1482861110092335
  rotation:
    x: -0.14710936736728636
    y: -0.04243287119440822
    z: 0.8974296494357437
    w: -0.41373626319961976
---
header:
  stamp:
    sec: 1664959679
    nanosec: 640324831
  frame_id: vive/reference
child_frame_id: vive/tracker_1
transform:
  translation:
    x: 0.45068842971688095
    y: -2.21670194801373
    z: -0.14828276431973686
  rotation:
    x: -0.14706765302033437
    y: -0.04237556448506022
    z: 0.8974417873421086
    w: -0.4137306617150632
---
header:
  stamp:
    sec: 1664959679
    nanosec: 660316944
  frame_id: vive/reference
child_frame_id: vive/tracker_1
transform:
  translation:
    x: 0.45064200059828674
    y: -2.2166623598080806
    z: -0.14828725748521032
  rotation:
    x: -0.14709135751060237
    y: -0.04238520332957749
    z: 0.8974424856706535
    w: -0.41371973837828513
---
header:
  stamp:
    sec: 1664959679
    nanosec: 680323601
  frame_id: vive/reference
child_frame_id: vive/tracker_1
transform:
  translation:
    x: 0.4507023646072892
    y: -2.2165734576406186
    z: -0.1482507766764427
  rotation:
    x: -0.1471194433143802
    y: -0.042365008415810396
    z: 0.8974390092159172
    w: -0.4137194018467917
---
header:
  stamp:
    sec: 1664959679
    nanosec: 700327396
  frame_id: vive/reference
child_frame_id: vive/tracker_1
transform:
  translation:
    x: 0.45076116472397865
    y: -2.216546288718089
    z: -0.1482301523653793
  rotation:
    x: -0.14712026880747975
    y: -0.04237455838674259
    z: 0.8974377078049501
    w: -0.4137208971289399
---
header:
  stamp:
    sec: 1664959679
    nanosec: 720347166
  frame_id: vive/reference
child_frame_id: vive/tracker_1
transform:
  translation:
    x: 0.4507691043389699
    y: -2.216578572029406
    z: -0.14831216318264095
  rotation:
    x: -0.1470756775434694
    y: -0.04235177392745959
    z: 0.8974570716009149
    w: -0.4136971173781575
---
header:
  stamp:
    sec: 1664959679
    nanosec: 740318060
  frame_id: vive/reference
child_frame_id: vive/tracker_1
transform:
  translation:
    x: 0.45071571388508613
    y: -2.216637151456108
    z: -0.14834052637901296
  rotation:
    x: -0.14710287267757954
    y: -0.04231415051545925
    z: 0.8974588555024627
    w: -0.41368743380914164
---
header:
  stamp:
    sec: 1664959679
    nanosec: 760331154
  frame_id: vive/reference
child_frame_id: vive/tracker_1
transform:
  translation:
    x: 0.45075922772901733
    y: -2.216614860585456
    z: -0.1482945759441594
  rotation:
    x: -0.14709756510918176
    y: -0.04230919625957358
    z: 0.8974698207853685
    w: -0.4136660528642975
---
header:
  stamp:
    sec: 1664959679
    nanosec: 780319214
  frame_id: vive/reference
child_frame_id: vive/tracker_1
transform:
  translation:
    x: 0.4507972769141866
    y: -2.2165157678829353
    z: -0.14827426728430337
  rotation:
    x: -0.14710596695524913
    y: -0.04229434381172814
    z: 0.8974707683087333
    w: -0.4136624982413507
---
header:
  stamp:
    sec: 1664959679
    nanosec: 800337553
  frame_id: vive/reference
child_frame_id: vive/tracker_1
transform:
  translation:
    x: 0.4508057276863695
    y: -2.2164929037450425
    z: -0.14827373494953866
  rotation:
    x: -0.1471174181966618
    y: -0.04228855579768728
    z: 0.8974812166870749
    w: -0.4136363649388209
---
header:
  stamp:
    sec: 1664959679
    nanosec: 820346594
  frame_id: vive/reference
child_frame_id: vive/tracker_1
transform:
  translation:
    x: 0.4507032306114349
    y: -2.2165171407529485
    z: -0.14826878279837175
  rotation:
    x: -0.14711359226983062
    y: -0.04226036231760816
    z: 0.8974873442746516
    w: -0.4136273090698689
---
header:
  stamp:
    sec: 1664959679
    nanosec: 840321541
  frame_id: vive/reference
child_frame_id: vive/tracker_1
transform:
  translation:
    x: 0.45065974526184616
    y: -2.216509006572905
    z: -0.1482970208692973
  rotation:
    x: -0.14710064281587976
    y: -0.042268132377881046
    z: 0.8974855445997534
    w: -0.4136349978350258
---
header:
  stamp:
    sec: 1664959679
    nanosec: 860314369
  frame_id: vive/reference
child_frame_id: vive/tracker_1
transform:
  translation:
    x: 0.45069549580306734
    y: -2.2164681580828414
    z: -0.14825297017871186
  rotation:
    x: -0.14714804954014027
    y: -0.04226445179968319
    z: 0.897491377907133
    w: -0.41360589306617923
---
header:
  stamp:
    sec: 1664959679
    nanosec: 880325556
  frame_id: vive/reference
child_frame_id: vive/tracker_1
transform:
  translation:
    x: 0.45065263572853786
    y: -2.2165203620831617
    z: -0.14827833493155662
  rotation:
    x: -0.1471111983678416
    y: -0.042274806895897604
    z: 0.8974817140622456
    w: -0.41363893726244505
---
header:
  stamp:
    sec: 1664959679
    nanosec: 900314569
  frame_id: vive/reference
child_frame_id: vive/tracker_1
transform:
  translation:
    x: 0.4505739801398503
    y: -2.2165983819820534
    z: -0.14825462470431772
  rotation:
    x: -0.14703111705188077
    y: -0.04222818812408716
    z: 0.8974947829005251
    w: -0.4136437564204165
---
header:
  stamp:
    sec: 1664959679
    nanosec: 920320272
  frame_id: vive/reference
child_frame_id: vive/tracker_1
transform:
  translation:
    x: 0.4505815182778512
    y: -2.2166062401958198
    z: -0.14828952756902103
  rotation:
    x: -0.1470327324553815
    y: -0.04221803060398033
    z: 0.8974952890619355
    w: -0.41364315532872165
---
header:
  stamp:
    sec: 1664959679
    nanosec: 940320015
  frame_id: vive/reference
child_frame_id: vive/tracker_1
transform:
  translation:
    x: 0.4506337676342709
    y: -2.2166572938362585
    z: -0.14822774971478303
  rotation:
    x: -0.1470253389049071
    y: -0.04219341137699345
    z: 0.8975048978759582
    w: -0.41362736281674883
---
header:
  stamp:
    sec: 1664959679
    nanosec: 960336924
  frame_id: vive/reference
child_frame_id: vive/tracker_1
transform:
  translation:
    x: 0.45073974983008
    y: -2.216662596412978
    z: -0.14830241911703812
  rotation:
    x: -0.14705341823135087
    y: -0.04219978668258706
    z: 0.8974871700160165
    w: -0.41365529144633256
---
header:
  stamp:
    sec: 1664959679
    nanosec: 980329275
  frame_id: vive/reference
child_frame_id: vive/tracker_1
transform:
  translation:
    x: 0.4508346446190339
    y: -2.216686235152819
    z: -0.14830392129900227
  rotation:
    x: -0.14708822619125028
    y: -0.04222324982966477
    z: 0.8974769079118776
    w: -0.4136627126888401
---
header:
  stamp:
    sec: 1664959680
    nanosec: 334024
  frame_id: vive/reference
child_frame_id: vive/tracker_1
transform:
  translation:
    x: 0.45085424613114644
    y: -2.216725028276148
    z: -0.14839044916072863
  rotation:
    x: -0.14706993491335701
    y: -0.04221271132810045
    z: 0.8974857254254447
    w: -0.4136512139461416
---
header:
  stamp:
    sec: 1664959680
    nanosec: 20357132
  frame_id: vive/reference
child_frame_id: vive/tracker_1
transform:
  translation:
    x: 0.4507811512609441
    y: -2.2167355402139655
    z: -0.1483426567659647
  rotation:
    x: -0.1470322191276211
    y: -0.04224011611448397
    z: 0.8974732402040474
    w: -0.41368893818608377
---
header:
  stamp:
    sec: 1664959680
    nanosec: 40347338
  frame_id: vive/reference
child_frame_id: vive/tracker_1
transform:
  translation:
    x: 0.45072816131062843
    y: -2.216665576407904
    z: -0.14838384145465477
  rotation:
    x: -0.14697441040171078
    y: -0.042264331842571445
    z: 0.8974720035011292
    w: -0.41370967789572843
---
header:
  stamp:
    sec: 1664959680
    nanosec: 60318470
  frame_id: vive/reference
child_frame_id: vive/tracker_1
transform:
  translation:
    x: 0.4507604643850198
    y: -2.216716146025303
    z: -0.14834494896971373
  rotation:
    x: -0.14694802450657374
    y: -0.04229408531383089
    z: 0.8974663863044934
    w: -0.4137281539139044
---
header:
  stamp:
    sec: 1664959680
    nanosec: 80336332
  frame_id: vive/reference
child_frame_id: vive/tracker_1
transform:
  translation:
    x: 0.4507406405651191
    y: -2.216676985955508
    z: -0.1483733227172479
  rotation:
    x: -0.14694799677032394
    y: -0.04229453411311279
    z: 0.8974602148699384
    w: -0.4137414938530372
---
header:
  stamp:
    sec: 1664959680
    nanosec: 100334644
  frame_id: vive/reference
child_frame_id: vive/tracker_1
transform:
  translation:
    x: 0.4506943225274005
    y: -2.2166182536055876
    z: -0.14832361119209692
  rotation:
    x: -0.14698934153506288
    y: -0.04230471595127197
    z: 0.8974605132043193
    w: -0.4137251368690984
---
header:
  stamp:
    sec: 1664959680
    nanosec: 120325804
  frame_id: vive/reference
child_frame_id: vive/tracker_1
transform:
  translation:
    x: 0.4507573729917047
    y: -2.216615142096279
    z: -0.14829612727267927
  rotation:
    x: -0.14697676433756013
    y: -0.04223976554699929
    z: 0.8974503915560161
    w: -0.4137582011372519
---
header:
  stamp:
    sec: 1664959680
    nanosec: 140311480
  frame_id: vive/reference
child_frame_id: vive/tracker_1
transform:
  translation:
    x: 0.450677554267527
    y: -2.2166522559724697
    z: -0.14834158309530965
  rotation:
    x: -0.14699486109778348
    y: -0.0422901935049147
    z: 0.8974204964728113
    w: -0.4138114272716009
---
header:
  stamp:
    sec: 1664959680
    nanosec: 160326481
  frame_id: vive/reference
child_frame_id: vive/tracker_1
transform:
  translation:
    x: 0.4508525762784352
    y: -2.2166527275849903
    z: -0.14830094538806504
  rotation:
    x: -0.1469730565921737
    y: -0.0422838929266795
    z: 0.8973796078278135
    w: -0.4139085664887884
---
header:
  stamp:
    sec: 1664959680
    nanosec: 180330753
  frame_id: vive/reference
child_frame_id: vive/tracker_1
transform:
  translation:
    x: 0.45097209208053024
    y: -2.216612242528855
    z: -0.14830313180558585
  rotation:
    x: -0.1469831936969177
    y: -0.04237679571989919
    z: 0.8973827003080761
    w: -0.41388868783678046
---
header:
  stamp:
    sec: 1664959680
    nanosec: 200351715
  frame_id: vive/reference
child_frame_id: vive/tracker_1
transform:
  translation:
    x: 0.45091332439093024
    y: -2.216730235447185
    z: -0.14835874022475348
  rotation:
    x: -0.1469608563035314
    y: -0.04241920189983381
    z: 0.8974036249723092
    w: -0.41384689451238815
---
header:
  stamp:
    sec: 1664959680
    nanosec: 220318079
  frame_id: vive/reference
child_frame_id: vive/tracker_1
transform:
  translation:
    x: 0.45077414740992583
    y: -2.21669330160237
    z: -0.14833469284330114
  rotation:
    x: -0.14692559138067973
    y: -0.04241041097529252
    z: 0.8974329430190537
    w: -0.4137967761845605
---
header:
  stamp:
    sec: 1664959680
    nanosec: 240316391
  frame_id: vive/reference
child_frame_id: vive/tracker_1
transform:
  translation:
    x: 0.45072007870739816
    y: -2.2166673986099603
    z: -0.14833567587779362
  rotation:
    x: -0.14695812479897702
    y: -0.042421496571645984
    z: 0.8974354315217892
    w: -0.41377870238947645
---
header:
  stamp:
    sec: 1664959680
    nanosec: 260340929
  frame_id: vive/reference
child_frame_id: vive/tracker_1
transform:
  translation:
    x: 0.4506887022757684
    y: -2.2167423393884524
    z: -0.14832663762165543
  rotation:
    x: -0.14695212207423475
    y: -0.04245104075945763
    z: 0.8974308345069337
    w: -0.4137877661109806
---
header:
  stamp:
    sec: 1664959680
    nanosec: 280319929
  frame_id: vive/reference
child_frame_id: vive/tracker_1
transform:
  translation:
    x: 0.45080404313230216
    y: -2.2167576795269044
    z: -0.1482651519938889
  rotation:
    x: -0.1469519409391839
    y: -0.0424624782927677
    z: 0.8974325496319567
    w: -0.41378292514297066
---
header:
  stamp:
    sec: 1664959680
    nanosec: 300329208
  frame_id: vive/reference
child_frame_id: vive/tracker_1
transform:
  translation:
    x: 0.45078651908455636
    y: -2.2166729018613713
    z: -0.1482591633376189
  rotation:
    x: -0.14695520280090363
    y: -0.04243551677007201
    z: 0.8974623467066369
    w: -0.4137198974323584
---
header:
  stamp:
    sec: 1664959680
    nanosec: 320329666
  frame_id: vive/reference
child_frame_id: vive/tracker_1
transform:
  translation:
    x: 0.4507608989083518
    y: -2.2166401531577393
    z: -0.14828678114800065
  rotation:
    x: -0.14695642102453693
    y: -0.04250783816693776
    z: 0.8974454181623774
    w: -0.413748778113253
---
header:
  stamp:
    sec: 1664959680
    nanosec: 340339899
  frame_id: vive/reference
child_frame_id: vive/tracker_1
transform:
  translation:
    x: 0.4508352459097227
    y: -2.2166360653158312
    z: -0.14821355659946933
  rotation:
    x: -0.14699655867664607
    y: -0.04249932881856572
    z: 0.8974793578082361
    w: -0.4136617932143477
---
header:
  stamp:
    sec: 1664959680
    nanosec: 360332251
  frame_id: vive/reference
child_frame_id: vive/tracker_1
transform:
  translation:
    x: 0.4507975105629052
    y: -2.2167737864671806
    z: -0.14835507375878354
  rotation:
    x: -0.1469773631020418
    y: -0.04242009024407026
    z: 0.8975039278732048
    w: -0.4136233853445635
---
header:
  stamp:
    sec: 1664959680
    nanosec: 380311728
  frame_id: vive/reference
child_frame_id: vive/tracker_1
transform:
  translation:
    x: 0.45063306806424186
    y: -2.2167970130017602
    z: -0.14836092328324169
  rotation:
    x: -0.14701424816558234
    y: -0.04245263876160596
    z: 0.8974831388029594
    w: -0.4136520561907264
---
header:
  stamp:
    sec: 1664959680
    nanosec: 400342703
  frame_id: vive/reference
child_frame_id: vive/tracker_1
transform:
  translation:
    x: 0.45062853249627044
    y: -2.2167964299264806
    z: -0.1483918084774225
  rotation:
    x: -0.14701318829204985
    y: -0.04248243378947253
    z: 0.8974616825299169
    w: -0.41369592169208697
---
header:
  stamp:
    sec: 1664959680
    nanosec: 420333385
  frame_id: vive/reference
child_frame_id: vive/tracker_1
transform:
  translation:
    x: 0.45072817229821927
    y: -2.2166895435535032
    z: -0.14825942132621917
  rotation:
    x: -0.1470237099376437
    y: -0.042502985015531736
    z: 0.8974396693971131
    w: -0.4137378838808455
---
header:
  stamp:
    sec: 1664959680
    nanosec: 440362930
  frame_id: vive/reference
child_frame_id: vive/tracker_1
transform:
  translation:
    x: 0.4507767284648889
    y: -2.216505428173022
    z: -0.1482281438775428
  rotation:
    x: -0.14706621122389885
    y: -0.042425445429263964
    z: 0.8974509519947657
    w: -0.41370620749788284
---
header:
  stamp:
    sec: 1664959680
    nanosec: 460359812
  frame_id: vive/reference
child_frame_id: vive/tracker_1
transform:
  translation:
    x: 0.4507890277000788
    y: -2.2166677810107647
    z: -0.14820835826814172
  rotation:
    x: -0.14708748553706608
    y: -0.04249423272907282
    z: 0.8974218570147607
    w: -0.4137547092388024
---
header:
  stamp:
    sec: 1664959680
    nanosec: 480327129
  frame_id: vive/reference
child_frame_id: vive/tracker_1
transform:
  translation:
    x: 0.450796413484986
    y: -2.2168461393912384
    z: -0.14821677445817683
  rotation:
    x: -0.14702412517409136
    y: -0.04247906626955131
    z: 0.897421413492781
    w: -0.413779692988573
---
header:
  stamp:
    sec: 1664959680
    nanosec: 500320911
  frame_id: vive/reference
child_frame_id: vive/tracker_1
transform:
  translation:
    x: 0.4507301795503251
    y: -2.2167634551929924
    z: -0.14821269231069456
  rotation:
    x: -0.147040358830751
    y: -0.04243635808294771
    z: 0.8974422763588672
    w: -0.41373309026801985
---
header:
  stamp:
    sec: 1664959680
    nanosec: 520336866
  frame_id: vive/reference
child_frame_id: vive/tracker_1
transform:
  translation:
    x: 0.4506690894132277
    y: -2.2167891865985183
    z: -0.14817157159245387
  rotation:
    x: -0.1469739221388971
    y: -0.04239269249946423
    z: 0.897451205774712
    w: -0.41374181908080243
---
header:
  stamp:
    sec: 1664959680
    nanosec: 540348530
  frame_id: vive/reference
child_frame_id: vive/tracker_1
transform:
  translation:
    x: 0.4507310407711922
    y: -2.2166579757646008
    z: -0.1482367284268098
  rotation:
    x: -0.14699055833561314
    y: -0.04233700676225005
    z: 0.8974645985979823
    w: -0.41371256013632274
---
header:
  stamp:
    sec: 1664959680
    nanosec: 560350418
  frame_id: vive/reference
child_frame_id: vive/tracker_1
transform:
  translation:
    x: 0.4507542153980444
    y: -2.2165930424079607
    z: -0.14820565584046275
  rotation:
    x: -0.14702384261511697
    y: -0.04236999362818389
    z: 0.8974503805178144
    w: -0.41372818741076434
---
header:
  stamp:
    sec: 1664959680
    nanosec: 580322981
  frame_id: vive/reference
child_frame_id: vive/tracker_1
transform:
  translation:
    x: 0.4507897880071139
    y: -2.216601313985929
    z: -0.14824643741135146
  rotation:
    x: -0.14700252543056502
    y: -0.04233338612467907
    z: 0.8974816882016179
    w: -0.413671599391944
---
header:
  stamp:
    sec: 1664959680
    nanosec: 600322008
  frame_id: vive/reference
child_frame_id: vive/tracker_1
transform:
  translation:
    x: 0.4507616608196858
    y: -2.216611391136522
    z: -0.14822818375406976
  rotation:
    x: -0.14701558756216387
    y: -0.04236792496878833
    z: 0.897482827661136
    w: -0.4136609377637791
---
header:
  stamp:
    sec: 1664959680
    nanosec: 620321035
  frame_id: vive/reference
child_frame_id: vive/tracker_1
transform:
  translation:
    x: 0.4507976664926432
    y: -2.2166060001654384
    z: -0.1482482368382696
  rotation:
    x: -0.1470123504406139
    y: -0.042342835803509365
    z: 0.8974824114036892
    w: -0.4136655984071681
---
header:
  stamp:
    sec: 1664959680
    nanosec: 640319347
  frame_id: vive/reference
child_frame_id: vive/tracker_1
transform:
  translation:
    x: 0.45066254469920985
    y: -2.2167199690335404
    z: -0.14824882135121475
  rotation:
    x: -0.14699415170850083
    y: -0.042340335536038415
    z: 0.897466721348491
    w: -0.4137063068082484
---
header:
  stamp:
    sec: 1664959680
    nanosec: 660300493
  frame_id: vive/reference
child_frame_id: vive/tracker_1
transform:
  translation:
    x: 0.45076909395194265
    y: -2.2167509688832703
    z: -0.1483041710158619
  rotation:
    x: -0.1469764042063405
    y: -0.04232243860305884
    z: 0.8974742622631888
    w: -0.413698132555271
---
header:
  stamp:
    sec: 1664959680
    nanosec: 680344343
  frame_id: vive/reference
child_frame_id: vive/tracker_1
transform:
  translation:
    x: 0.4507502903773186
    y: -2.216818383068879
    z: -0.14822488191268013
  rotation:
    x: -0.14699781730327227
    y: -0.04234244172316515
    z: 0.8974619356176536
    w: -0.4137151484215803
---
header:
  stamp:
    sec: 1664959680
    nanosec: 700338364
  frame_id: vive/reference
child_frame_id: vive/tracker_1
transform:
  translation:
    x: 0.45068588983853153
    y: -2.2167954273007857
    z: -0.14832111647566704
  rotation:
    x: -0.14694754561376322
    y: -0.04233993491178792
    z: 0.8974730060722634
    w: -0.41370928601852097
---
header:
  stamp:
    sec: 1664959680
    nanosec: 720323086
  frame_id: vive/reference
child_frame_id: vive/tracker_1
transform:
  translation:
    x: 0.4507303574132633
    y: -2.2166997351246183
    z: -0.1482841938873114
  rotation:
    x: -0.14701334213877937
    y: -0.04235694488457198
    z: 0.8974757185479126
    w: -0.41367828988364597
---
header:
  stamp:
    sec: 1664959680
    nanosec: 740335941
  frame_id: vive/reference
child_frame_id: vive/tracker_1
transform:
  translation:
    x: 0.4508125715168976
    y: -2.216670719652782
    z: -0.1482459125922948
  rotation:
    x: -0.14701293980252278
    y: -0.04235599224273964
    z: 0.8974621386467072
    w: -0.4137080072896113
---
header:
  stamp:
    sec: 1664959680
    nanosec: 760324240
  frame_id: vive/reference
child_frame_id: vive/tracker_1
transform:
  translation:
    x: 0.45092236267851526
    y: -2.2166692698918173
    z: -0.14826903525276824
  rotation:
    x: -0.1470398516076853
    y: -0.04234476150372321
    z: 0.8974808001718348
    w: -0.4136590758814948
---
header:
  stamp:
    sec: 1664959680
    nanosec: 780320644
  frame_id: vive/reference
child_frame_id: vive/tracker_1
transform:
  translation:
    x: 0.4509072522999775
    y: -2.2167360995742214
    z: -0.1484057820658915
  rotation:
    x: -0.14706310935745853
    y: -0.042344559563339046
    z: 0.8974713622781603
    w: -0.41367131323753553
---
header:
  stamp:
    sec: 1664959680
    nanosec: 800314903
  frame_id: vive/reference
child_frame_id: vive/tracker_1
transform:
  translation:
    x: 0.45093309071521737
    y: -2.2167072907766117
    z: -0.14830200363403323
  rotation:
    x: -0.14700496359867737
    y: -0.04241236804305609
    z: 0.8974618122037663
    w: -0.4137057363351919
---
header:
  stamp:
    sec: 1664959680
    nanosec: 820325375
  frame_id: vive/reference
child_frame_id: vive/tracker_1
transform:
  translation:
    x: 0.45092605601784075
    y: -2.2167271858624193
    z: -0.1482790727692458
  rotation:
    x: -0.1470272589053947
    y: -0.042427899845206646
    z: 0.8974467914690976
    w: -0.4137288150584273
---
header:
  stamp:
    sec: 1664959680
    nanosec: 840337753
  frame_id: vive/reference
child_frame_id: vive/tracker_1
transform:
  translation:
    x: 0.4508178407423189
    y: -2.2167160391995266
    z: -0.14826379334111683
  rotation:
    x: -0.14700279709498038
    y: -0.042391536027144405
    z: 0.8974723864567733
    w: -0.4136857202744722
---
header:
  stamp:
    sec: 1664959680
    nanosec: 860327244
  frame_id: vive/reference
child_frame_id: vive/tracker_1
transform:
  translation:
    x: 0.4506443838483747
    y: -2.216751792901646
    z: -0.14834498119394057
  rotation:
    x: -0.14697096289406247
    y: -0.042382932247331445
    z: 0.8974642880319892
    w: -0.41371542817160245
---
header:
  stamp:
    sec: 1664959680
    nanosec: 880317211
  frame_id: vive/reference
child_frame_id: vive/tracker_1
transform:
  translation:
    x: 0.45062092569583645
    y: -2.2167204963350806
    z: -0.14836281027638787
  rotation:
    x: -0.14698422628423413
    y: -0.04240606874523742
    z: 0.8974555040687091
    w: -0.41372746710545527
---
header:
  stamp:
    sec: 1664959680
    nanosec: 900340080
  frame_id: vive/reference
child_frame_id: vive/tracker_1
transform:
  translation:
    x: 0.45070014445712103
    y: -2.21659339606593
    z: -0.1482519607863111
  rotation:
    x: -0.14700152803859945
    y: -0.042395198009170715
    z: 0.8974828518836477
    w: -0.4136630824536023
---
header:
  stamp:
    sec: 1664959680
    nanosec: 920319796
  frame_id: vive/reference
child_frame_id: vive/tracker_1
transform:
  translation:
    x: 0.45077148991385463
    y: -2.216597332557702
    z: -0.1482429260537712
  rotation:
    x: -0.14701107891498705
    y: -0.04237222519902331
    z: 0.8974872493250645
    w: -0.41365253079346964
---
header:
  stamp:
    sec: 1664959680
    nanosec: 940336704
  frame_id: vive/reference
child_frame_id: vive/tracker_1
transform:
  translation:
    x: 0.450837688297282
    y: -2.2166632739237686
    z: -0.1482010597443293
  rotation:
    x: -0.14702340383824342
    y: -0.04240235603377154
    z: 0.8974782001058419
    w: -0.4136646831105647
---
header:
  stamp:
    sec: 1664959680
    nanosec: 960345030
  frame_id: vive/reference
child_frame_id: vive/tracker_1
transform:
  translation:
    x: 0.45091105087150196
    y: -2.2167203829699087
    z: -0.14823839455282295
  rotation:
    x: -0.14702189188521597
    y: -0.0424449817664426
    z: 0.897468822830263
    w: -0.4136812024997041
---
header:
  stamp:
    sec: 1664959680
    nanosec: 980330467
  frame_id: vive/reference
child_frame_id: vive/tracker_1
transform:
  translation:
    x: 0.45084001179414934
    y: -2.2166949611067044
    z: -0.14818267973258026
  rotation:
    x: -0.14705512175490332
    y: -0.04249012672727365
    z: 0.8974472258757124
    w: -0.4137115796945555
---
header:
  stamp:
    sec: 1664959681
    nanosec: 330925
  frame_id: vive/reference
child_frame_id: vive/tracker_1
transform:
  translation:
    x: 0.4507613073530219
    y: -2.216744239267906
    z: -0.14816847790358034
  rotation:
    x: -0.14702974248092499
    y: -0.042531981791226664
    z: 0.8974272739961874
    w: -0.4137595747141444
---
header:
  stamp:
    sec: 1664959681
    nanosec: 20323277
  frame_id: vive/reference
child_frame_id: vive/tracker_1
transform:
  translation:
    x: 0.4506960498469008
    y: -2.216703928294178
    z: -0.1482462812388432
  rotation:
    x: -0.14699492545429432
    y: -0.04255168752928612
    z: 0.8974348509590133
    w: -0.413753507828489
---
header:
  stamp:
    sec: 1664959681
    nanosec: 40326357
  frame_id: vive/reference
child_frame_id: vive/tracker_1
transform:
  translation:
    x: 0.450746897438689
    y: -2.216711738280986
    z: -0.14827772621477342
  rotation:
    x: -0.14701276547467418
    y: -0.042537014442802834
    z: 0.8974517973571491
    w: -0.4137119113532848
---
header:
  stamp:
    sec: 1664959681
    nanosec: 60314417
  frame_id: vive/reference
child_frame_id: vive/tracker_1
transform:
  translation:
    x: 0.4508484155438406
    y: -2.21669215744166
    z: -0.14832663004053748
  rotation:
    x: -0.14700586294634754
    y: -0.04248385139102684
    z: 0.8974746321443526
    w: -0.41367028273324524
---
header:
  stamp:
    sec: 1664959681
    nanosec: 80323458
  frame_id: vive/reference
child_frame_id: vive/tracker_1
transform:
  translation:
    x: 0.45074092542905464
    y: -2.216802186394057
    z: -0.14829856453732093
  rotation:
    x: -0.14702474683397038
    y: -0.04249837695837741
    z: 0.8974551637321675
    w: -0.4137043128277327
---
header:
  stamp:
    sec: 1664959681
    nanosec: 100316286
  frame_id: vive/reference
child_frame_id: vive/tracker_1
transform:
  translation:
    x: 0.45078405433539825
    y: -2.216790851106864
    z: -0.1483330310845825
  rotation:
    x: -0.14702463837831414
    y: -0.0424837301727235
    z: 0.8974893803237163
    w: -0.4136316114531552
---
header:
  stamp:
    sec: 1664959681
    nanosec: 120311260
  frame_id: vive/reference
child_frame_id: vive/tracker_1
transform:
  translation:
    x: 0.4507439978889203
    y: -2.2168285781351496
    z: -0.14816954165859775
  rotation:
    x: -0.14708960696443868
    y: -0.04247143494941344
    z: 0.897474321072135
    w: -0.4136424577542934
---
header:
  stamp:
    sec: 1664959681
    nanosec: 140326262
  frame_id: vive/reference
child_frame_id: vive/tracker_1
transform:
  translation:
    x: 0.45076172976939444
    y: -2.2167592445349937
    z: -0.148213830130278
  rotation:
    x: -0.1470610553508393
    y: -0.04246080462625135
    z: 0.8974661990077479
    w: -0.41367131879414226
---
header:
  stamp:
    sec: 1664959681
    nanosec: 160412550
  frame_id: vive/reference
child_frame_id: vive/tracker_1
transform:
  translation:
    x: 0.4507150109904481
    y: -2.2167661367370513
    z: -0.14826115231161818
  rotation:
    x: -0.1471025694140643
    y: -0.042469072950922865
    z: 0.8974579040073585
    w: -0.41367368690427087
---
header:
  stamp:
    sec: 1664959681
    nanosec: 180364132
  frame_id: vive/reference
child_frame_id: vive/tracker_1
transform:
  translation:
    x: 0.4507862718087041
    y: -2.216853109513088
    z: -0.14819831872644196
  rotation:
    x: -0.14706860031911767
    y: -0.042436947369088596
    z: 0.8974696426975501
    w: -0.4136636260724945
---
header:
  stamp:
    sec: 1664959681
    nanosec: 200326681
  frame_id: vive/reference
child_frame_id: vive/tracker_1
transform:
  translation:
    x: 0.4507323699311454
    y: -2.2168551869652764
    z: -0.1482238837045453
  rotation:
    x: -0.14706376362289414
    y: -0.04243411903142069
    z: 0.8974506002084517
    w: -0.41370699436451963
---
header:
  stamp:
    sec: 1664959681
    nanosec: 220331907
  frame_id: vive/reference
child_frame_id: vive/tracker_1
transform:
  translation:
    x: 0.45069960835983447
    y: -2.21670378700931
    z: -0.1482771266120464
  rotation:
    x: -0.14705819963501904
    y: -0.042478028200562956
    z: 0.8974260703009806
    w: -0.41375761730455674
---
header:
  stamp:
    sec: 1664959681
    nanosec: 240324974
  frame_id: vive/reference
child_frame_id: vive/tracker_1
transform:
  translation:
    x: 0.45068723511129716
    y: -2.2166496752421514
    z: -0.14834647133264722
  rotation:
    x: -0.1471728584322659
    y: -0.0431689984599051
    z: 0.8976137343225828
    w: -0.4132379131481676
---
header:
  stamp:
    sec: 1664959681
    nanosec: 260333776
  frame_id: vive/reference
child_frame_id: vive/tracker_1
transform:
  translation:
    x: 0.4510501943120542
    y: -2.2167811465091214
