header:
  stamp:
    sec: 1664959676
    nanosec: 974539702
  frame_id: Waveshare_Sense_HAT_B/IMU
orientation:
  x: -0.7720806301617564
  y: -0.6354606736920928
  z: 0.008443032126660623
  w: 0.0031540336594602686
orientation_covariance:
- -1.0
- -1.0
- -1.0
- -1.0
- -1.0
- -1.0
- -1.0
- -1.0
- -1.0
angular_velocity:
  x: -0.010652644360316951
  y: 0.0026631610900792377
  z: 0.00985369603329318
angular_velocity_covariance:
- 0.0
- 0.0
- 0.0
- 0.0
- 0.0
- 0.0
- 0.0
- 0.0
- 0.0
linear_acceleration:
  x: -0.16645385742187502
  y: -0.3879931640625
  z: 10.00399658203125
linear_acceleration_covariance:
- 0.0
- 0.0
- 0.0
- 0.0
- 0.0
- 0.0
- 0.0
- 0.0
- 0.0
---
header:
  stamp:
    sec: 1664959676
    nanosec: 986727491
  frame_id: Waveshare_Sense_HAT_B/IMU
orientation:
  x: -0.7721084252221924
  y: -0.6354266967105484
  z: 0.008454528253290097
  w: 0.003164452628977801
orientation_covariance:
- -1.0
- -1.0
- -1.0
- -1.0
- -1.0
- -1.0
- -1.0
- -1.0
- -1.0
angular_velocity:
  x: -0.0077231671612297895
  y: -0.0026631610900792377
  z: 0.0042610577441267805
angular_velocity_covariance:
- 0.0
- 0.0
- 0.0
- 0.0
- 0.0
- 0.0
- 0.0
- 0.0
- 0.0
linear_acceleration:
  x: -0.16046630859375
  y: -0.3496728515625
  z: 9.98244140625
linear_acceleration_covariance:
- 0.0
- 0.0
- 0.0
- 0.0
- 0.0
- 0.0
- 0.0
- 0.0
- 0.0
---
header:
  stamp:
    sec: 1664959676
    nanosec: 998896409
  frame_id: Waveshare_Sense_HAT_B/IMU
orientation:
  x: -0.772152981171049
  y: -0.6353719671345966
  z: 0.008490310946545334
  w: 0.0031861682638566133
orientation_covariance:
- -1.0
- -1.0
- -1.0
- -1.0
- -1.0
- -1.0
- -1.0
- -1.0
- -1.0
angular_velocity:
  x: -0.0053263221801584755
  y: -0.0055926382891664
  z: 0.008522115488253561
angular_velocity_covariance:
- 0.0
- 0.0
- 0.0
- 0.0
- 0.0
- 0.0
- 0.0
- 0.0
- 0.0
linear_acceleration:
  x: -0.1389111328125
  y: -0.38200561523437504
  z: 9.981243896484376
linear_acceleration_covariance:
- 0.0
- 0.0
- 0.0
- 0.0
- 0.0
- 0.0
- 0.0
- 0.0
- 0.0
---
header:
  stamp:
    sec: 1664959677
    nanosec: 11004940
  frame_id: Waveshare_Sense_HAT_B/IMU
orientation:
  x: -0.7722043166048942
  y: -0.6353099904643333
  z: 0.008460223306266591
  w: 0.0031834029881611754
orientation_covariance:
- -1.0
- -1.0
- -1.0
- -1.0
- -1.0
- -1.0
- -1.0
- -1.0
- -1.0
angular_velocity:
  x: -0.013049489341388266
  y: 0.0002663161090079238
  z: 0.010386328251309028
angular_velocity_covariance:
- 0.0
- 0.0
- 0.0
- 0.0
- 0.0
- 0.0
- 0.0
- 0.0
- 0.0
linear_acceleration:
  x: -0.130528564453125
  y: -0.34248779296875004
  z: 9.97525634765625
linear_acceleration_covariance:
- 0.0
- 0.0
- 0.0
- 0.0
- 0.0
- 0.0
- 0.0
- 0.0
- 0.0
---
header:
  stamp:
    sec: 1664959677
    nanosec: 23112526
  frame_id: Waveshare_Sense_HAT_B/IMU
orientation:
  x: -0.7722832192087539
  y: -0.6352142301240311
  z: 0.0084379681520781
  w: 0.0032112100465278982
orientation_covariance:
- -1.0
- -1.0
- -1.0
- -1.0
- -1.0
- -1.0
- -1.0
- -1.0
- -1.0
angular_velocity:
  x: -0.007989483270237713
  y: 0.002396844981071314
  z: 0.01757686319452297
angular_velocity_covariance:
- 0.0
- 0.0
- 0.0
- 0.0
- 0.0
- 0.0
- 0.0
- 0.0
- 0.0
linear_acceleration:
  x: -0.118553466796875
  y: -0.335302734375
  z: 9.980046386718751
linear_acceleration_covariance:
- 0.0
- 0.0
- 0.0
- 0.0
- 0.0
- 0.0
- 0.0
- 0.0
- 0.0
---
header:
  stamp:
    sec: 1664959677
    nanosec: 35216205
  frame_id: Waveshare_Sense_HAT_B/IMU
orientation:
  x: -0.7723035625791352
  y: -0.6351901608749434
  z: 0.008392907123337153
  w: 0.0031977906839612594
orientation_covariance:
- -1.0
- -1.0
- -1.0
- -1.0
- -1.0
- -1.0
- -1.0
- -1.0
- -1.0
angular_velocity:
  x: -0.014913702104443732
  y: 0.002396844981071314
  z: 0.0034621094171030094
angular_velocity_covariance:
- 0.0
- 0.0
- 0.0
- 0.0
- 0.0
- 0.0
- 0.0
- 0.0
- 0.0
linear_acceleration:
  x: -0.12094848632812501
  y: -0.3305126953125
  z: 9.96567626953125
linear_acceleration_covariance:
- 0.0
- 0.0
- 0.0
- 0.0
- 0.0
- 0.0
- 0.0
- 0.0
- 0.0
---
header:
  stamp:
    sec: 1664959677
    nanosec: 47370679
  frame_id: Waveshare_Sense_HAT_B/IMU
orientation:
  x: -0.7723244396277137
  y: -0.6351650172921204
  z: 0.008379303857202815
  w: 0.0031855971036560634
orientation_covariance:
- -1.0
- -1.0
- -1.0
- -1.0
- -1.0
- -1.0
- -1.0
- -1.0
- -1.0
angular_velocity:
  x: -0.0111852765783328
  y: -0.0007989483270237714
  z: 0.0034621094171030094
angular_velocity_covariance:
- 0.0
- 0.0
- 0.0
- 0.0
- 0.0
- 0.0
- 0.0
- 0.0
- 0.0
linear_acceleration:
  x: -0.140108642578125
  y: -0.319735107421875
  z: 9.980046386718751
linear_acceleration_covariance:
- 0.0
- 0.0
- 0.0
- 0.0
- 0.0
- 0.0
- 0.0
- 0.0
- 0.0
---
header:
  stamp:
    sec: 1664959677
    nanosec: 59494302
  frame_id: Waveshare_Sense_HAT_B/IMU
orientation:
  x: -0.7723649235121612
  y: -0.635116238471023
  z: 0.008349875696117006
  w: 0.0031730323558401235
orientation_covariance:
- -1.0
- -1.0
- -1.0
- -1.0
- -1.0
- -1.0
- -1.0
- -1.0
- -1.0
angular_velocity:
  x: -0.012516857123372417
  y: 0.0015978966540475428
  z: 0.007989483270237713
angular_velocity_covariance:
- 0.0
- 0.0
- 0.0
- 0.0
- 0.0
- 0.0
- 0.0
- 0.0
- 0.0
linear_acceleration:
  x: -0.16525634765625
  y: -0.30895751953125
  z: 9.992021484375
linear_acceleration_covariance:
- 0.0
- 0.0
- 0.0
- 0.0
- 0.0
- 0.0
- 0.0
- 0.0
- 0.0
---
header:
  stamp:
    sec: 1664959677
    nanosec: 71599684
  frame_id: Waveshare_Sense_HAT_B/IMU
orientation:
  x: -0.7723629404096412
  y: -0.6351185422607332
  z: 0.008368889402066015
  w: 0.0031443995532161534
orientation_covariance:
- -1.0
- -1.0
- -1.0
- -1.0
- -1.0
- -1.0
- -1.0
- -1.0
- -1.0
angular_velocity:
  x: -0.010120012142301104
  y: -0.004527373853134705
  z: -0.0031957933080950856
angular_velocity_covariance:
- 0.0
- 0.0
- 0.0
- 0.0
- 0.0
- 0.0
- 0.0
- 0.0
- 0.0
linear_acceleration:
  x: -0.22153930664062502
  y: -0.31255004882812504
  z: 9.98962646484375
linear_acceleration_covariance:
- 0.0
- 0.0
- 0.0
- 0.0
- 0.0
- 0.0
- 0.0
- 0.0
- 0.0
---
header:
  stamp:
    sec: 1664959677
    nanosec: 83699011
  frame_id: Waveshare_Sense_HAT_B/IMU
orientation:
  x: -0.7723623107510403
  y: -0.635119237489649
  z: 0.008385691939564593
  w: 0.0031137232655990828
orientation_covariance:
- -1.0
- -1.0
- -1.0
- -1.0
- -1.0
- -1.0
- -1.0
- -1.0
- -1.0
angular_velocity:
  x: -0.012250541014364494
  y: -0.0042610577441267805
  z: -0.0029294771990871615
angular_velocity_covariance:
- 0.0
- 0.0
- 0.0
- 0.0
- 0.0
- 0.0
- 0.0
- 0.0
- 0.0
linear_acceleration:
  x: -0.229921875
  y: -0.34727783203125
  z: 9.990823974609375
linear_acceleration_covariance:
- 0.0
- 0.0
- 0.0
- 0.0
- 0.0
- 0.0
- 0.0
- 0.0
- 0.0
---
header:
  stamp:
    sec: 1664959677
    nanosec: 95968243
  frame_id: Waveshare_Sense_HAT_B/IMU
orientation:
  x: -0.772335866521348
  y: -0.6351515214875214
  z: 0.0083696245002006
  w: 0.0031310417644396958
orientation_covariance:
- -1.0
- -1.0
- -1.0
- -1.0
- -1.0
- -1.0
- -1.0
- -1.0
- -1.0
angular_velocity:
  x: -0.009321063815277333
  y: 0.004527373853134705
  z: -0.00985369603329318
angular_velocity_covariance:
- 0.0
- 0.0
- 0.0
- 0.0
- 0.0
- 0.0
- 0.0
- 0.0
- 0.0
linear_acceleration:
  x: -0.24069946289062502
  y: -0.335302734375
  z: 9.986033935546876
linear_acceleration_covariance:
- 0.0
- 0.0
- 0.0
- 0.0
- 0.0
- 0.0
- 0.0
- 0.0
- 0.0
---
header:
  stamp:
    sec: 1664959677
    nanosec: 108096014
  frame_id: Waveshare_Sense_HAT_B/IMU
orientation:
  x: -0.7723133052484344
  y: -0.6351782770866004
  z: 0.008399053598586271
  w: 0.0031891616742153847
orientation_covariance:
- -1.0
- -1.0
- -1.0
- -1.0
- -1.0
- -1.0
- -1.0
- -1.0
- -1.0
angular_velocity:
  x: 0.0005326322180158476
  y: 0.0029294771990871615
  z: -0.008788431597261484
angular_velocity_covariance:
- 0.0
- 0.0
- 0.0
- 0.0
- 0.0
- 0.0
- 0.0
- 0.0
- 0.0
linear_acceleration:
  x: -0.23710693359375
  y: -0.33171020507812504
  z: 9.980046386718751
linear_acceleration_covariance:
- 0.0
- 0.0
- 0.0
- 0.0
- 0.0
- 0.0
- 0.0
- 0.0
- 0.0
---
header:
  stamp:
    sec: 1664959677
    nanosec: 120196452
  frame_id: Waveshare_Sense_HAT_B/IMU
orientation:
  x: -0.7722993738590989
  y: -0.6351938070479475
  z: 0.00850606115797561
  w: 0.0031861494559091846
orientation_covariance:
- -1.0
- -1.0
- -1.0
- -1.0
- -1.0
- -1.0
- -1.0
- -1.0
- -1.0
angular_velocity:
  x: 0.0013315805450396189
  y: -0.012516857123372417
  z: -0.006391586616190171
angular_velocity_covariance:
- 0.0
- 0.0
- 0.0
- 0.0
- 0.0
- 0.0
- 0.0
- 0.0
- 0.0
linear_acceleration:
  x: -0.2442919921875
  y: -0.32332763671875003
  z: 9.981243896484376
linear_acceleration_covariance:
- 0.0
- 0.0
- 0.0
- 0.0
- 0.0
- 0.0
- 0.0
- 0.0
- 0.0
---
header:
  stamp:
    sec: 1664959677
    nanosec: 132307760
  frame_id: Waveshare_Sense_HAT_B/IMU
orientation:
  x: -0.7722921322294055
  y: -0.6352018045239899
  z: 0.008576497688015218
  w: 0.0031581186539810023
orientation_covariance:
- -1.0
- -1.0
- -1.0
- -1.0
- -1.0
- -1.0
- -1.0
- -1.0
- -1.0
angular_velocity:
  x: -0.0053263221801584755
  y: -0.009587379924285256
  z: -0.004527373853134705
angular_velocity_covariance:
- 0.0
- 0.0
- 0.0
- 0.0
- 0.0
- 0.0
- 0.0
- 0.0
- 0.0
linear_acceleration:
  x: -0.257464599609375
  y: -0.324525146484375
  z: 9.987231445312501
linear_acceleration_covariance:
- 0.0
- 0.0
- 0.0
- 0.0
- 0.0
- 0.0
- 0.0
- 0.0
- 0.0
---
header:
  stamp:
    sec: 1664959677
    nanosec: 144415883
  frame_id: Waveshare_Sense_HAT_B/IMU
orientation:
  x: -0.7722605494336565
  y: -0.6352391546190321
  z: 0.008665087346785257
  w: 0.003126737692316829
orientation_covariance:
- -1.0
- -1.0
- -1.0
- -1.0
- -1.0
- -1.0
- -1.0
- -1.0
- -1.0
angular_velocity:
  x: -0.003728425526110933
  y: -0.012250541014364494
  z: -0.010386328251309028
angular_velocity_covariance:
- 0.0
- 0.0
- 0.0
- 0.0
- 0.0
- 0.0
- 0.0
- 0.0
- 0.0
linear_acceleration:
  x: -0.24908203125
  y: -0.32332763671875003
  z: 9.978848876953126
linear_acceleration_covariance:
- 0.0
- 0.0
- 0.0
- 0.0
- 0.0
- 0.0
- 0.0
- 0.0
- 0.0
---
header:
  stamp:
    sec: 1664959677
    nanosec: 156541988
  frame_id: Waveshare_Sense_HAT_B/IMU
orientation:
  x: -0.7721745130050038
  y: -0.635342350825925
  z: 0.008782382005409968
  w: 0.0030803374463652853
orientation_covariance:
- -1.0
- -1.0
- -1.0
- -1.0
- -1.0
- -1.0
- -1.0
- -1.0
- -1.0
angular_velocity:
  x: -0.0031957933080950856
  y: -0.01810949541253882
  z: -0.023968449810713142
angular_velocity_covariance:
- 0.0
- 0.0
- 0.0
- 0.0
- 0.0
- 0.0
- 0.0
- 0.0
- 0.0
linear_acceleration:
  x: -0.233514404296875
  y: -0.33410522460937503
  z: 9.9584912109375
linear_acceleration_covariance:
- 0.0
- 0.0
- 0.0
- 0.0
- 0.0
- 0.0
- 0.0
- 0.0
- 0.0
---
header:
  stamp:
    sec: 1664959677
    nanosec: 168673388
  frame_id: Waveshare_Sense_HAT_B/IMU
orientation:
  x: -0.7720964497574173
  y: -0.6354363210866338
  z: 0.008867384138055861
  w: 0.0030205321425984433
orientation_covariance:
- -1.0
- -1.0
- -1.0
- -1.0
- -1.0
- -1.0
- -1.0
- -1.0
- -1.0
angular_velocity:
  x: -0.008255799379245638
  y: -0.01810949541253882
  z: -0.022104237047657675
angular_velocity_covariance:
- 0.0
- 0.0
- 0.0
- 0.0
- 0.0
- 0.0
- 0.0
- 0.0
- 0.0
linear_acceleration:
  x: -0.18561401367187502
  y: -0.336500244140625
  z: 9.97046630859375
linear_acceleration_covariance:
- 0.0
- 0.0
- 0.0
- 0.0
- 0.0
- 0.0
- 0.0
- 0.0
- 0.0
---
header:
  stamp:
    sec: 1664959677
    nanosec: 180836695
  frame_id: Waveshare_Sense_HAT_B/IMU
orientation:
  x: -0.7720039704090716
  y: -0.6355471403586405
  z: 0.00900764311284724
  w: 0.002926503055717919
orientation_covariance:
- -1.0
- -1.0
- -1.0
- -1.0
- -1.0
- -1.0
- -1.0
- -1.0
- -1.0
angular_velocity:
  x: -0.0066579027251980945
  y: -0.028495823663847845
  z: -0.025566346464760685
angular_velocity_covariance:
- 0.0
- 0.0
- 0.0
- 0.0
- 0.0
- 0.0
- 0.0
- 0.0
- 0.0
linear_acceleration:
  x: -0.188009033203125
  y: -0.33290771484375004
  z: 9.9968115234375
linear_acceleration_covariance:
- 0.0
- 0.0
- 0.0
- 0.0
- 0.0
- 0.0
- 0.0
- 0.0
- 0.0
---
header:
  stamp:
    sec: 1664959677
    nanosec: 192951985
  frame_id: Waveshare_Sense_HAT_B/IMU
orientation:
  x: -0.7719525038881618
  y: -0.6356083533966836
  z: 0.00915334465416101
  w: 0.00275120242730276
orientation_covariance:
- -1.0
- -1.0
- -1.0
- -1.0
- -1.0
- -1.0
- -1.0
- -1.0
- -1.0
angular_velocity:
  x: -0.013315805450396189
  y: -0.036751623043093484
  z: -0.014913702104443732
angular_velocity_covariance:
- 0.0
- 0.0
- 0.0
- 0.0
- 0.0
- 0.0
- 0.0
- 0.0
- 0.0
linear_acceleration:
  x: -0.19399658203125
  y: -0.27542724609375
  z: 10.002799072265626
linear_acceleration_covariance:
- 0.0
- 0.0
- 0.0
- 0.0
- 0.0
- 0.0
- 0.0
- 0.0
- 0.0
---
header:
  stamp:
    sec: 1664959677
    nanosec: 205052016
  frame_id: Waveshare_Sense_HAT_B/IMU
orientation:
  x: -0.7718767212818453
  y: -0.6356994572172654
  z: 0.009257957741334076
  w: 0.0026110257222831832
orientation_covariance:
- -1.0
- -1.0
- -1.0
- -1.0
- -1.0
- -1.0
- -1.0
- -1.0
- -1.0
angular_velocity:
  x: -0.014381069886427884
  y: -0.02902845588186369
  z: -0.022104237047657675
angular_velocity_covariance:
- 0.0
- 0.0
- 0.0
- 0.0
- 0.0
- 0.0
- 0.0
- 0.0
- 0.0
linear_acceleration:
  x: -0.22153930664062502
  y: -0.288599853515625
  z: 10.000404052734375
linear_acceleration_covariance:
- 0.0
- 0.0
- 0.0
- 0.0
- 0.0
- 0.0
- 0.0
- 0.0
- 0.0
---
header:
  stamp:
    sec: 1664959677
    nanosec: 217162824
  frame_id: Waveshare_Sense_HAT_B/IMU
orientation:
  x: -0.7718255934553985
  y: -0.635760433950273
  z: 0.00935502467040915
  w: 0.002531288999466723
orientation_covariance:
- -1.0
- -1.0
- -1.0
- -1.0
- -1.0
- -1.0
- -1.0
- -1.0
- -1.0
angular_velocity:
  x: -0.0077231671612297895
  y: -0.02103897261162598
  z: -0.015712650431467502
angular_velocity_covariance:
- 0.0
- 0.0
- 0.0
- 0.0
- 0.0
- 0.0
- 0.0
- 0.0
- 0.0
linear_acceleration:
  x: -0.23231689453125
  y: -0.29219238281250004
  z: 9.978848876953126
linear_acceleration_covariance:
- 0.0
- 0.0
- 0.0
- 0.0
- 0.0
- 0.0
- 0.0
- 0.0
- 0.0
---
header:
  stamp:
    sec: 1664959677
    nanosec: 229303058
  frame_id: Waveshare_Sense_HAT_B/IMU
orientation:
  x: -0.7718340923613566
  y: -0.6357487303246635
  z: 0.009453162098902243
  w: 0.0025146541772605694
orientation_covariance:
- -1.0
- -1.0
- -1.0
- -1.0
- -1.0
- -1.0
- -1.0
- -1.0
- -1.0
angular_velocity:
  x: -0.0002663161090079238
  y: -0.016511598758491276
  z: -0.0015978966540475428
angular_velocity_covariance:
- 0.0
- 0.0
- 0.0
- 0.0
- 0.0
- 0.0
- 0.0
- 0.0
- 0.0
linear_acceleration:
  x: -0.22752685546875
  y: -0.29338989257812503
  z: 9.988428955078126
linear_acceleration_covariance:
- 0.0
- 0.0
- 0.0
- 0.0
- 0.0
- 0.0
- 0.0
- 0.0
- 0.0
---
header:
  stamp:
    sec: 1664959677
    nanosec: 241412311
  frame_id: Waveshare_Sense_HAT_B/IMU
orientation:
  x: -0.7718627458993241
  y: -0.6357124912814893
  z: 0.009559711985204068
  w: 0.0024782712114712765
orientation_covariance:
- -1.0
- -1.0
- -1.0
- -1.0
- -1.0
- -1.0
- -1.0
- -1.0
- -1.0
angular_velocity:
  x: -0.0026631610900792377
  y: -0.01970739206658636
  z: 0.0034621094171030094
angular_velocity_covariance:
- 0.0
- 0.0
- 0.0
- 0.0
- 0.0
- 0.0
- 0.0
- 0.0
- 0.0
linear_acceleration:
  x: -0.228724365234375
  y: -0.3113525390625
  z: 9.981243896484376
linear_acceleration_covariance:
- 0.0
- 0.0
- 0.0
- 0.0
- 0.0
- 0.0
- 0.0
- 0.0
- 0.0
---
header:
  stamp:
    sec: 1664959677
    nanosec: 253524545
  frame_id: Waveshare_Sense_HAT_B/IMU
orientation:
  x: -0.7719360142939826
  y: -0.6356225358934365
  z: 0.009629328700885178
  w: 0.0024612454342293577
orientation_covariance:
- -1.0
- -1.0
- -1.0
- -1.0
- -1.0
- -1.0
- -1.0
- -1.0
- -1.0
angular_velocity:
  x: -0.0042610577441267805
  y: -0.014647385995435807
  z: 0.014381069886427884
angular_velocity_covariance:
- 0.0
- 0.0
- 0.0
- 0.0
- 0.0
- 0.0
- 0.0
- 0.0
- 0.0
linear_acceleration:
  x: -0.204774169921875
  y: -0.316142578125
  z: 9.998009033203125
linear_acceleration_covariance:
- 0.0
- 0.0
- 0.0
- 0.0
- 0.0
- 0.0
- 0.0
- 0.0
- 0.0
---
header:
  stamp:
    sec: 1664959677
    nanosec: 265626261
  frame_id: Waveshare_Sense_HAT_B/IMU
orientation:
  x: -0.7720546100249889
  y: -0.635477846059563
  z: 0.009665979087690596
  w: 0.0024809584714719263
orientation_covariance:
- -1.0
- -1.0
- -1.0
- -1.0
- -1.0
- -1.0
- -1.0
- -1.0
- -1.0
angular_velocity:
  x: -0.002396844981071314
  y: -0.006391586616190171
  z: 0.02609897868277653
angular_velocity_covariance:
- 0.0
- 0.0
- 0.0
- 0.0
- 0.0
- 0.0
- 0.0
- 0.0
- 0.0
linear_acceleration:
  x: -0.195194091796875
  y: -0.30895751953125
  z: 9.998009033203125
linear_acceleration_covariance:
- 0.0
- 0.0
- 0.0
- 0.0
- 0.0
- 0.0
- 0.0
- 0.0
- 0.0
---
header:
  stamp:
    sec: 1664959677
    nanosec: 277728828
  frame_id: Waveshare_Sense_HAT_B/IMU
orientation:
  x: -0.7721827885932169
  y: -0.6353223932520287
  z: 0.009652185141582318
  w: 0.00245620742415527
orientation_covariance:
- -1.0
- -1.0
- -1.0
- -1.0
- -1.0
- -1.0
- -1.0
- -1.0
- -1.0
angular_velocity:
  x: -0.013315805450396189
  y: -0.004793689962142628
  z: 0.028495823663847845
angular_velocity_covariance:
- 0.0
- 0.0
- 0.0
- 0.0
- 0.0
- 0.0
- 0.0
- 0.0
- 0.0
linear_acceleration:
  x: -0.18920654296875
  y: -0.316142578125
  z: 9.981243896484376
linear_acceleration_covariance:
- 0.0
- 0.0
- 0.0
- 0.0
- 0.0
- 0.0
- 0.0
- 0.0
- 0.0
---
header:
  stamp:
    sec: 1664959677
    nanosec: 289894562
  frame_id: Waveshare_Sense_HAT_B/IMU
orientation:
  x: -0.7722964688205489
  y: -0.6351846994366689
  z: 0.00961595261626833
  w: 0.002468866975213571
orientation_covariance:
- -1.0
- -1.0
- -1.0
- -1.0
- -1.0
- -1.0
- -1.0
- -1.0
- -1.0
angular_velocity:
  x: -0.010918960469324876
  y: 0.0021305288720633903
  z: 0.02476739813773691
angular_velocity_covariance:
- 0.0
- 0.0
- 0.0
- 0.0
- 0.0
- 0.0
- 0.0
- 0.0
- 0.0
linear_acceleration:
  x: -0.19639160156250002
  y: -0.31374755859375003
  z: 9.97046630859375
linear_acceleration_covariance:
- 0.0
- 0.0
- 0.0
- 0.0
- 0.0
- 0.0
- 0.0
- 0.0
- 0.0
---
header:
  stamp:
    sec: 1664959677
    nanosec: 302057888
  frame_id: Waveshare_Sense_HAT_B/IMU
orientation:
  x: -0.7724125706726068
  y: -0.6350436593688544
  z: 0.009610834301109336
  w: 0.002450148237650985
orientation_covariance:
- -1.0
- -1.0
- -1.0
- -1.0
- -1.0
- -1.0
- -1.0
- -1.0
- -1.0
angular_velocity:
  x: -0.00985369603329318
  y: -0.0055926382891664
  z: 0.025566346464760685
angular_velocity_covariance:
- 0.0
- 0.0
- 0.0
- 0.0
- 0.0
- 0.0
- 0.0
- 0.0
- 0.0
linear_acceleration:
  x: -0.17483642578125
  y: -0.276624755859375
  z: 9.972861328125001
linear_acceleration_covariance:
- 0.0
- 0.0
- 0.0
- 0.0
- 0.0
- 0.0
- 0.0
- 0.0
- 0.0
---
header:
  stamp:
    sec: 1664959677
    nanosec: 314168103
  frame_id: Waveshare_Sense_HAT_B/IMU
orientation:
  x: -0.7725146163117473
  y: -0.634919414304635
  z: 0.009626759022643832
  w: 0.0024146292661303406
orientation_covariance:
- -1.0
- -1.0
- -1.0
- -1.0
- -1.0
- -1.0
- -1.0
- -1.0
- -1.0
angular_velocity:
  x: -0.00985369603329318
  y: -0.011717908796348646
  z: 0.021837920938649752
angular_velocity_covariance:
- 0.0
- 0.0
- 0.0
- 0.0
- 0.0
- 0.0
- 0.0
- 0.0
- 0.0
linear_acceleration:
  x: -0.1484912109375
  y: -0.27422973632812503
  z: 9.992021484375
linear_acceleration_covariance:
- 0.0
- 0.0
- 0.0
- 0.0
- 0.0
- 0.0
- 0.0
- 0.0
- 0.0
---
header:
  stamp:
    sec: 1664959677
    nanosec: 326282504
  frame_id: Waveshare_Sense_HAT_B/IMU
orientation:
  x: -0.7726116366332092
  y: -0.6348016598950962
  z: 0.009620093268697989
  w: 0.002359097048867665
orientation_covariance:
- -1.0
- -1.0
- -1.0
- -1.0
- -1.0
- -1.0
- -1.0
- -1.0
- -1.0
angular_velocity:
  x: -0.01411475377741996
  y: -0.011984224905356571
  z: 0.020506340393610132
angular_velocity_covariance:
- 0.0
- 0.0
- 0.0
- 0.0
- 0.0
- 0.0
- 0.0
- 0.0
- 0.0
linear_acceleration:
  x: -0.13172607421875002
  y: -0.26105712890625
  z: 9.974058837890626
linear_acceleration_covariance:
- 0.0
- 0.0
- 0.0
- 0.0
- 0.0
- 0.0
- 0.0
- 0.0
- 0.0
---
header:
  stamp:
    sec: 1664959677
    nanosec: 338394127
  frame_id: Waveshare_Sense_HAT_B/IMU
orientation:
  x: -0.7726489213633764
  y: -0.6347581951156127
  z: 0.009509637560435076
  w: 0.002290162232221287
orientation_covariance:
- -1.0
- -1.0
- -1.0
- -1.0
- -1.0
- -1.0
- -1.0
- -1.0
- -1.0
angular_velocity:
  x: -0.025566346464760685
  y: -0.0005326322180158476
  z: 0.0055926382891664
angular_velocity_covariance:
- 0.0
- 0.0
- 0.0
- 0.0
- 0.0
- 0.0
- 0.0
- 0.0
- 0.0
linear_acceleration:
  x: -0.118553466796875
  y: -0.24668701171875002
  z: 9.987231445312501
linear_acceleration_covariance:
- 0.0
- 0.0
- 0.0
- 0.0
- 0.0
- 0.0
- 0.0
- 0.0
- 0.0
---
header:
  stamp:
    sec: 1664959677
    nanosec: 350532287
  frame_id: Waveshare_Sense_HAT_B/IMU
orientation:
  x: -0.7726510361087077
  y: -0.6347574255243305
  z: 0.00941774843089328
  w: 0.002166369395304293
orientation_covariance:
- -1.0
- -1.0
- -1.0
- -1.0
- -1.0
- -1.0
- -1.0
- -1.0
- -1.0
angular_velocity:
  x: -0.029294771990871615
  y: -0.007456851052221866
  z: -0.0029294771990871615
angular_velocity_covariance:
- 0.0
- 0.0
- 0.0
- 0.0
- 0.0
- 0.0
- 0.0
- 0.0
- 0.0
linear_acceleration:
  x: -0.1293310546875
  y: -0.22034179687500002
  z: 9.9680712890625
linear_acceleration_covariance:
- 0.0
- 0.0
- 0.0
- 0.0
- 0.0
- 0.0
- 0.0
- 0.0
- 0.0
---
header:
  stamp:
    sec: 1664959677
    nanosec: 362661298
  frame_id: Waveshare_Sense_HAT_B/IMU
orientation:
  x: -0.7726344437203663
  y: -0.6347792748947569
  z: 0.00933558493645478
  w: 0.002033567038700965
orientation_covariance:
- -1.0
- -1.0
- -1.0
- -1.0
- -1.0
- -1.0
- -1.0
- -1.0
- -1.0
angular_velocity:
  x: -0.029294771990871615
  y: -0.008788431597261484
  z: -0.007989483270237713
angular_velocity_covariance:
- 0.0
- 0.0
- 0.0
- 0.0
- 0.0
- 0.0
- 0.0
- 0.0
- 0.0
linear_acceleration:
  x: -0.162861328125
  y: -0.209564208984375
  z: 9.972861328125001
linear_acceleration_covariance:
- 0.0
- 0.0
- 0.0
- 0.0
- 0.0
- 0.0
- 0.0
- 0.0
- 0.0
---
header:
  stamp:
    sec: 1664959677
    nanosec: 374765625
  frame_id: Waveshare_Sense_HAT_B/IMU
orientation:
  x: -0.7725826308530455
  y: -0.6348435647937667
  z: 0.009266120263287634
  w: 0.001966153451726787
orientation_covariance:
- -1.0
- -1.0
- -1.0
- -1.0
- -1.0
- -1.0
- -1.0
- -1.0
- -1.0
angular_velocity:
  x: -0.02024002428460221
  y: -0.003994741635118856
  z: -0.017044230976507122
angular_velocity_covariance:
- 0.0
- 0.0
- 0.0
- 0.0
- 0.0
- 0.0
- 0.0
- 0.0
- 0.0
linear_acceleration:
  x: -0.16525634765625
  y: -0.21076171875000002
  z: 9.980046386718751
linear_acceleration_covariance:
- 0.0
- 0.0
- 0.0
- 0.0
- 0.0
- 0.0
- 0.0
- 0.0
- 0.0
---
header:
  stamp:
    sec: 1664959677
    nanosec: 386868452
  frame_id: Waveshare_Sense_HAT_B/IMU
orientation:
  x: -0.7725136784009311
  y: -0.634928591624859
  z: 0.00920282752751264
  w: 0.0018995226334685767
orientation_covariance:
- -1.0
- -1.0
- -1.0
- -1.0
- -1.0
- -1.0
- -1.0
- -1.0
- -1.0
angular_velocity:
  x: -0.02103897261162598
  y: -0.0042610577441267805
  z: -0.02103897261162598
angular_velocity_covariance:
- 0.0
- 0.0
- 0.0
- 0.0
- 0.0
- 0.0
- 0.0
- 0.0
- 0.0
linear_acceleration:
  x: -0.162861328125
  y: -0.24548950195312502
  z: 9.99920654296875
linear_acceleration_covariance:
- 0.0
- 0.0
- 0.0
- 0.0
- 0.0
- 0.0
- 0.0
- 0.0
- 0.0
---
header:
  stamp:
    sec: 1664959677
    nanosec: 399037778
  frame_id: Waveshare_Sense_HAT_B/IMU
orientation:
  x: -0.7725004697902312
  y: -0.6349459732768835
  z: 0.009125426034791764
  w: 0.0018335193008789802
orientation_covariance:
- -1.0
- -1.0
- -1.0
- -1.0
- -1.0
- -1.0
- -1.0
- -1.0
- -1.0
angular_velocity:
  x: -0.025033714246744835
  y: -0.0015978966540475428
  z: -0.006391586616190171
angular_velocity_covariance:
- 0.0
- 0.0
- 0.0
- 0.0
- 0.0
- 0.0
- 0.0
- 0.0
- 0.0
linear_acceleration:
  x: -0.154478759765625
  y: -0.310155029296875
  z: 9.99920654296875
linear_acceleration_covariance:
- 0.0
- 0.0
- 0.0
- 0.0
- 0.0
- 0.0
- 0.0
- 0.0
- 0.0
---
header:
  stamp:
    sec: 1664959677
    nanosec: 411149198
  frame_id: Waveshare_Sense_HAT_B/IMU
orientation:
  x: -0.7724927556296287
  y: -0.634957011579098
  z: 0.009018530966154788
  w: 0.0017894260243591586
orientation_covariance:
- -1.0
- -1.0
- -1.0
- -1.0
- -1.0
- -1.0
- -1.0
- -1.0
- -1.0
angular_velocity:
  x: -0.02583266257376861
  y: 0.004527373853134705
  z: -0.005060006071150552
angular_velocity_covariance:
- 0.0
- 0.0
- 0.0
- 0.0
- 0.0
- 0.0
- 0.0
- 0.0
- 0.0
linear_acceleration:
  x: -0.15687377929687502
  y: -0.319735107421875
  z: 9.998009033203125
linear_acceleration_covariance:
- 0.0
- 0.0
- 0.0
- 0.0
- 0.0
- 0.0
- 0.0
- 0.0
- 0.0
---
header:
  stamp:
    sec: 1664959677
    nanosec: 423257580
  frame_id: Waveshare_Sense_HAT_B/IMU
orientation:
  x: -0.7724721664965002
  y: -0.6349832429409398
  z: 0.008933993152703368
  w: 0.0017935826599902924
orientation_covariance:
- -1.0
- -1.0
- -1.0
- -1.0
- -1.0
- -1.0
- -1.0
- -1.0
- -1.0
angular_velocity:
  x: -0.01810949541253882
  y: 0.007456851052221866
  z: -0.007989483270237713
angular_velocity_covariance:
- 0.0
- 0.0
- 0.0
- 0.0
- 0.0
- 0.0
- 0.0
- 0.0
- 0.0
linear_acceleration:
  x: -0.16046630859375
  y: -0.33290771484375004
  z: 10.005194091796875
linear_acceleration_covariance:
- 0.0
- 0.0
- 0.0
- 0.0
- 0.0
- 0.0
- 0.0
- 0.0
- 0.0
---
header:
  stamp:
    sec: 1664959677
    nanosec: 435359648
  frame_id: Waveshare_Sense_HAT_B/IMU
orientation:
  x: -0.7724526138670659
  y: -0.635007370417311
  z: 0.008904355203335594
  w: 0.0018196988878459077
orientation_covariance:
- -1.0
- -1.0
- -1.0
- -1.0
- -1.0
- -1.0
- -1.0
- -1.0
- -1.0
angular_velocity:
  x: -0.00985369603329318
  y: 0.0029294771990871615
  z: -0.007989483270237713
angular_velocity_covariance:
- 0.0
- 0.0
- 0.0
- 0.0
- 0.0
- 0.0
- 0.0
- 0.0
- 0.0
linear_acceleration:
  x: -0.17244140625
  y: -0.32811767578125
  z: 9.987231445312501
linear_acceleration_covariance:
- 0.0
- 0.0
- 0.0
- 0.0
- 0.0
- 0.0
- 0.0
- 0.0
- 0.0
---
header:
  stamp:
    sec: 1664959677
    nanosec: 447478159
  frame_id: Waveshare_Sense_HAT_B/IMU
orientation:
  x: -0.7724722688770534
  y: -0.6349831809546744
  z: 0.008908683830985899
  w: 0.0018944848957450498
orientation_covariance:
- -1.0
- -1.0
- -1.0
- -1.0
- -1.0
- -1.0
- -1.0
- -1.0
- -1.0
angular_velocity:
  x: -0.0015978966540475428
  y: 0.004527373853134705
  z: 0.0018642127630554665
angular_velocity_covariance:
- 0.0
- 0.0
- 0.0
- 0.0
- 0.0
- 0.0
- 0.0
- 0.0
- 0.0
linear_acceleration:
  x: -0.19160156250000002
  y: -0.355660400390625
  z: 9.99920654296875
linear_acceleration_covariance:
- 0.0
- 0.0
- 0.0
- 0.0
- 0.0
- 0.0
- 0.0
- 0.0
- 0.0
---
header:
  stamp:
    sec: 1664959677
    nanosec: 459634652
  frame_id: Waveshare_Sense_HAT_B/IMU
orientation:
  x: -0.7724560409404175
  y: -0.635002972683621
  z: 0.008890530366496492
  w: 0.0019616236699476343
orientation_covariance:
- -1.0
- -1.0
- -1.0
- -1.0
- -1.0
- -1.0
- -1.0
- -1.0
- -1.0
angular_velocity:
  x: -0.0053263221801584755
  y: 0.0053263221801584755
  z: -0.007190534943213942
angular_velocity_covariance:
- 0.0
- 0.0
- 0.0
- 0.0
- 0.0
- 0.0
- 0.0
- 0.0
- 0.0
linear_acceleration:
  x: -0.16525634765625
  y: -0.36643798828125
  z: 9.992021484375
linear_acceleration_covariance:
- 0.0
- 0.0
- 0.0
- 0.0
- 0.0
- 0.0
- 0.0
- 0.0
- 0.0
---
header:
  stamp:
    sec: 1664959677
    nanosec: 471738405
  frame_id: Waveshare_Sense_HAT_B/IMU
orientation:
  x: -0.7724868586884814
  y: -0.634965626507156
  z: 0.008869728010859326
  w: 0.0020085400145814785
orientation_covariance:
- -1.0
- -1.0
- -1.0
- -1.0
- -1.0
- -1.0
- -1.0
- -1.0
- -1.0
angular_velocity:
  x: -0.007190534943213942
  y: 0.0042610577441267805
  z: 0.005060006071150552
angular_velocity_covariance:
- 0.0
- 0.0
- 0.0
- 0.0
- 0.0
- 0.0
- 0.0
- 0.0
- 0.0
linear_acceleration:
  x: -0.16046630859375
  y: -0.35326538085937503
  z: 9.98244140625
linear_acceleration_covariance:
- 0.0
- 0.0
- 0.0
- 0.0
- 0.0
- 0.0
- 0.0
- 0.0
- 0.0
---
header:
  stamp:
    sec: 1664959677
    nanosec: 483838473
  frame_id: Waveshare_Sense_HAT_B/IMU
orientation:
  x: -0.7725114795100625
  y: -0.6349358666724549
  z: 0.008842252609102472
  w: 0.0020673187633578395
orientation_covariance:
- -1.0
- -1.0
- -1.0
- -1.0
- -1.0
- -1.0
- -1.0
- -1.0
- -1.0
angular_velocity:
  x: -0.006391586616190171
  y: 0.0053263221801584755
  z: 0.0029294771990871615
angular_velocity_covariance:
- 0.0
- 0.0
- 0.0
- 0.0
- 0.0
- 0.0
- 0.0
- 0.0
- 0.0
linear_acceleration:
  x: -0.16046630859375
  y: -0.346080322265625
  z: 9.9680712890625
linear_acceleration_covariance:
- 0.0
- 0.0
- 0.0
- 0.0
- 0.0
- 0.0
- 0.0
- 0.0
- 0.0
---
header:
  stamp:
    sec: 1664959677
    nanosec: 495984799
  frame_id: Waveshare_Sense_HAT_B/IMU
orientation:
  x: -0.7724838187161495
  y: -0.6349698841302343
  z: 0.008800352531548199
  w: 0.00213304117930531
orientation_covariance:
- -1.0
- -1.0
- -1.0
- -1.0
- -1.0
- -1.0
- -1.0
- -1.0
- -1.0
angular_velocity:
  x: -0.005858954398174323
  y: 0.007989483270237713
  z: -0.010386328251309028
angular_velocity_covariance:
- 0.0
- 0.0
- 0.0
- 0.0
- 0.0
- 0.0
- 0.0
- 0.0
- 0.0
linear_acceleration:
  x: -0.17004638671875
  y: -0.319735107421875
  z: 9.976453857421875
linear_acceleration_covariance:
- 0.0
- 0.0
- 0.0
- 0.0
- 0.0
- 0.0
- 0.0
- 0.0
- 0.0
---
header:
  stamp:
    sec: 1664959677
    nanosec: 508133495
  frame_id: Waveshare_Sense_HAT_B/IMU
orientation:
  x: -0.7724304769932889
  y: -0.635035302350386
  z: 0.008749423967371894
  w: 0.0021841613752331852
orientation_covariance:
- -1.0
- -1.0
- -1.0
- -1.0
- -1.0
- -1.0
- -1.0
- -1.0
- -1.0
angular_velocity:
  x: -0.009587379924285256
  y: 0.00905474770626941
  z: -0.016511598758491276
angular_velocity_covariance:
- 0.0
- 0.0
- 0.0
- 0.0
- 0.0
- 0.0
- 0.0
- 0.0
- 0.0
linear_acceleration:
  x: -0.18441650390625
  y: -0.3448828125
  z: 9.953701171875
linear_acceleration_covariance:
- 0.0
- 0.0
- 0.0
- 0.0
- 0.0
- 0.0
- 0.0
- 0.0
- 0.0
---
header:
  stamp:
    sec: 1664959677
    nanosec: 520234804
  frame_id: Waveshare_Sense_HAT_B/IMU
orientation:
  x: -0.7723398099058687
  y: -0.6351457542828357
  z: 0.008734105632104522
  w: 0.002191859909156222
orientation_covariance:
- -1.0
- -1.0
- -1.0
- -1.0
- -1.0
- -1.0
- -1.0
- -1.0
- -1.0
angular_velocity:
  x: -0.011451592687340723
  y: 0.0
  z: -0.02583266257376861
angular_velocity_covariance:
- 0.0
- 0.0
- 0.0
- 0.0
- 0.0
- 0.0
- 0.0
- 0.0
- 0.0
linear_acceleration:
  x: -0.17962646484375
  y: -0.346080322265625
  z: 9.953701171875
linear_acceleration_covariance:
- 0.0
- 0.0
- 0.0
- 0.0
- 0.0
- 0.0
- 0.0
- 0.0
- 0.0
---
header:
  stamp:
    sec: 1664959677
    nanosec: 532350575
  frame_id: Waveshare_Sense_HAT_B/IMU
orientation:
  x: -0.7723090923973458
  y: -0.6351832634996927
  z: 0.008722704158184592
  w: 0.0021913471739193756
orientation_covariance:
- -1.0
- -1.0
- -1.0
- -1.0
- -1.0
- -1.0
- -1.0
- -1.0
- -1.0
angular_velocity:
  x: -0.011451592687340723
  y: -0.0010652644360316951
  z: -0.010386328251309028
angular_velocity_covariance:
- 0.0
- 0.0
- 0.0
- 0.0
- 0.0
- 0.0
- 0.0
- 0.0
- 0.0
linear_acceleration:
  x: -0.17244140625
  y: -0.338895263671875
  z: 9.9680712890625
linear_acceleration_covariance:
- 0.0
- 0.0
- 0.0
- 0.0
- 0.0
- 0.0
- 0.0
- 0.0
- 0.0
---
header:
  stamp:
    sec: 1664959677
    nanosec: 544456439
  frame_id: Waveshare_Sense_HAT_B/IMU
orientation:
  x: -0.7722326674806893
  y: -0.6352764391445002
  z: 0.008718577967522142
  w: 0.0021306200429281916
orientation_covariance:
- -1.0
- -1.0
- -1.0
- -1.0
- -1.0
- -1.0
- -1.0
- -1.0
- -1.0
angular_velocity:
  x: -0.017843179303530892
  y: -0.0077231671612297895
  z: -0.021837920938649752
angular_velocity_covariance:
- 0.0
- 0.0
- 0.0
- 0.0
- 0.0
- 0.0
- 0.0
- 0.0
- 0.0
linear_acceleration:
  x: -0.18202148437500001
  y: -0.3305126953125
  z: 9.964478759765626
linear_acceleration_covariance:
- 0.0
- 0.0
- 0.0
- 0.0
- 0.0
- 0.0
- 0.0
- 0.0
- 0.0
---
header:
  stamp:
    sec: 1664959677
    nanosec: 556571618
  frame_id: Waveshare_Sense_HAT_B/IMU
orientation:
  x: -0.7721581729636467
  y: -0.6353673585867836
  z: 0.008711010267455745
  w: 0.0020478935559960286
orientation_covariance:
- -1.0
- -1.0
- -1.0
- -1.0
- -1.0
- -1.0
- -1.0
- -1.0
- -1.0
angular_velocity:
  x: -0.01970739206658636
  y: -0.008255799379245638
  z: -0.021571604829641825
angular_velocity_covariance:
- 0.0
- 0.0
- 0.0
- 0.0
- 0.0
- 0.0
- 0.0
- 0.0
- 0.0
linear_acceleration:
  x: -0.21555175781250002
  y: -0.300574951171875
  z: 9.956096191406251
linear_acceleration_covariance:
- 0.0
- 0.0
- 0.0
- 0.0
- 0.0
- 0.0
- 0.0
- 0.0
- 0.0
---
header:
  stamp:
    sec: 1664959677
    nanosec: 568676074
  frame_id: Waveshare_Sense_HAT_B/IMU
orientation:
  x: -0.7720903222899248
  y: -0.6354499219269079
  z: 0.00871635939527976
  w: 0.0019889766762874166
orientation_covariance:
- -1.0
- -1.0
- -1.0
- -1.0
- -1.0
- -1.0
- -1.0
- -1.0
- -1.0
angular_velocity:
  x: -0.015978966540475426
  y: -0.006924218834206019
  z: -0.019973708175594285
angular_velocity_covariance:
- 0.0
- 0.0
- 0.0
- 0.0
- 0.0
- 0.0
- 0.0
- 0.0
- 0.0
linear_acceleration:
  x: -0.23111938476562502
  y: -0.310155029296875
  z: 9.962083740234375
linear_acceleration_covariance:
- 0.0
- 0.0
- 0.0
- 0.0
- 0.0
- 0.0
- 0.0
- 0.0
- 0.0
---
header:
  stamp:
    sec: 1664959677
    nanosec: 580842752
  frame_id: Waveshare_Sense_HAT_B/IMU
orientation:
  x: -0.7720348273526063
  y: -0.6355173290675838
  z: 0.008728870015149026
  w: 0.0019382047606847598
orientation_covariance:
- -1.0
- -1.0
- -1.0
- -1.0
- -1.0
- -1.0
- -1.0
- -1.0
- -1.0
angular_velocity:
  x: -0.014647385995435807
  y: -0.0066579027251980945
  z: -0.016245282649483352
angular_velocity_covariance:
- 0.0
- 0.0
- 0.0
- 0.0
- 0.0
- 0.0
- 0.0
- 0.0
- 0.0
linear_acceleration:
  x: -0.214354248046875
  y: -0.32572265625
  z: 9.966873779296876
linear_acceleration_covariance:
- 0.0
- 0.0
- 0.0
- 0.0
- 0.0
- 0.0
- 0.0
- 0.0
- 0.0
---
header:
  stamp:
    sec: 1664959677
    nanosec: 592944801
  frame_id: Waveshare_Sense_HAT_B/IMU
orientation:
  x: -0.7719829431704621
  y: -0.6355792195500064
  z: 0.008827029232937437
  w: 0.0018640506959694651
orientation_covariance:
- -1.0
- -1.0
- -1.0
- -1.0
- -1.0
- -1.0
- -1.0
- -1.0
- -1.0
angular_velocity:
  x: -0.008788431597261484
  y: -0.020772656502618055
  z: -0.015446334322459579
angular_velocity_covariance:
- 0.0
- 0.0
- 0.0
- 0.0
- 0.0
- 0.0
- 0.0
- 0.0
- 0.0
linear_acceleration:
  x: -0.20357666015625
  y: -0.3209326171875
  z: 9.97046630859375
linear_acceleration_covariance:
- 0.0
- 0.0
- 0.0
- 0.0
- 0.0
- 0.0
- 0.0
- 0.0
- 0.0
---
header:
  stamp:
    sec: 1664959677
    nanosec: 605042609
  frame_id: Waveshare_Sense_HAT_B/IMU
orientation:
  x: -0.7719218880607359
  y: -0.6356522615545068
  z: 0.008921065005937388
  w: 0.0017932407952383576
orientation_covariance:
- -1.0
- -1.0
- -1.0
- -1.0
- -1.0
- -1.0
- -1.0
- -1.0
- -1.0
angular_velocity:
  x: -0.0055926382891664
  y: -0.019973708175594285
  z: -0.017843179303530892
angular_velocity_covariance:
- 0.0
- 0.0
- 0.0
- 0.0
- 0.0
- 0.0
- 0.0
- 0.0
- 0.0
linear_acceleration:
  x: -0.207169189453125
  y: -0.25147705078125
  z: 9.9968115234375
linear_acceleration_covariance:
- 0.0
- 0.0
- 0.0
- 0.0
- 0.0
- 0.0
- 0.0
- 0.0
- 0.0
---
header:
  stamp:
    sec: 1664959677
    nanosec: 617144825
  frame_id: Waveshare_Sense_HAT_B/IMU
orientation:
  x: -0.7718661932794701
  y: -0.6357192219078659
  z: 0.008972092923635745
  w: 0.001775420425352844
orientation_covariance:
- -1.0
- -1.0
- -1.0
- -1.0
- -1.0
- -1.0
- -1.0
- -1.0
- -1.0
angular_velocity:
  x: -0.003728425526110933
  y: -0.009587379924285256
  z: -0.017310547085515045
angular_velocity_covariance:
- 0.0
- 0.0
- 0.0
- 0.0
- 0.0
- 0.0
- 0.0
- 0.0
- 0.0
linear_acceleration:
  x: -0.23111938476562502
  y: -0.250279541015625
  z: 9.993218994140625
linear_acceleration_covariance:
- 0.0
- 0.0
- 0.0
- 0.0
- 0.0
- 0.0
- 0.0
- 0.0
- 0.0
---
header:
  stamp:
    sec: 1664959677
    nanosec: 629299929
  frame_id: Waveshare_Sense_HAT_B/IMU
orientation:
  x: -0.7717808538032969
  y: -0.6358218788700697
  z: 0.00903890113133586
  w: 0.0017749138364018527
orientation_covariance:
- -1.0
- -1.0
- -1.0
- -1.0
- -1.0
- -1.0
- -1.0
- -1.0
- -1.0
angular_velocity:
  x: -0.0013315805450396189
  y: -0.010120012142301104
  z: -0.025033714246744835
angular_velocity_covariance:
- 0.0
- 0.0
- 0.0
- 0.0
- 0.0
- 0.0
- 0.0
- 0.0
- 0.0
linear_acceleration:
  x: -0.233514404296875
  y: -0.27542724609375
  z: 9.976453857421875
linear_acceleration_covariance:
- 0.0
- 0.0
- 0.0
- 0.0
- 0.0
- 0.0
- 0.0
- 0.0
- 0.0
---
header:
  stamp:
    sec: 1664959677
    nanosec: 641421385
  frame_id: Waveshare_Sense_HAT_B/IMU
orientation:
  x: -0.771727464373463
  y: -0.6358855445309719
  z: 0.009111593835226613
  w: 0.0018093772509521417
orientation_covariance:
- -1.0
- -1.0
- -1.0
- -1.0
- -1.0
- -1.0
- -1.0
- -1.0
- -1.0
angular_velocity:
  x: 0.005060006071150552
  y: -0.008255799379245638
  z: -0.017310547085515045
angular_velocity_covariance:
- 0.0
- 0.0
- 0.0
- 0.0
- 0.0
- 0.0
- 0.0
- 0.0
- 0.0
linear_acceleration:
  x: -0.22513183593750002
  y: -0.24189697265625001
  z: 9.97046630859375
linear_acceleration_covariance:
- 0.0
- 0.0
- 0.0
- 0.0
- 0.0
- 0.0
- 0.0
- 0.0
- 0.0
---
header:
  stamp:
    sec: 1664959677
    nanosec: 653548730
  frame_id: Waveshare_Sense_HAT_B/IMU
orientation:
  x: -0.7717167407453428
  y: -0.6358974011338387
  z: 0.00916974391299672
  w: 0.0019191355306868003
orientation_covariance:
- -1.0
- -1.0
- -1.0
- -1.0
- -1.0
- -1.0
- -1.0
- -1.0
- -1.0
angular_velocity:
  x: 0.011451592687340723
  y: 0.0005326322180158476
  z: -0.006125270507182247
angular_velocity_covariance:
- 0.0
- 0.0
- 0.0
- 0.0
- 0.0
- 0.0
- 0.0
- 0.0
- 0.0
linear_acceleration:
  x: -0.192799072265625
  y: -0.281414794921875
  z: 9.966873779296876
linear_acceleration_covariance:
- 0.0
- 0.0
- 0.0
- 0.0
- 0.0
- 0.0
- 0.0
- 0.0
- 0.0
---
header:
  stamp:
    sec: 1664959677
    nanosec: 665657613
  frame_id: Waveshare_Sense_HAT_B/IMU
orientation:
  x: -0.7717080319187215
  y: -0.6359069143793756
  z: 0.009214792153707498
  w: 0.0020487367323959735
orientation_covariance:
- -1.0
- -1.0
- -1.0
- -1.0
- -1.0
- -1.0
- -1.0
- -1.0
- -1.0
angular_velocity:
  x: 0.012250541014364494
  y: 0.003728425526110933
  z: -0.005858954398174323
angular_velocity_covariance:
- 0.0
- 0.0
- 0.0
- 0.0
- 0.0
- 0.0
- 0.0
- 0.0
- 0.0
linear_acceleration:
  x: -0.18920654296875
  y: -0.288599853515625
  z: 9.97046630859375
linear_acceleration_covariance:
- 0.0
- 0.0
- 0.0
- 0.0
- 0.0
- 0.0
- 0.0
- 0.0
- 0.0
---
header:
  stamp:
    sec: 1664959677
    nanosec: 677761440
  frame_id: Waveshare_Sense_HAT_B/IMU
orientation:
  x: -0.7717076944143674
  y: -0.6359057819899188
  z: 0.009295690364726166
  w: 0.002158924291093247
orientation_covariance:
- -1.0
- -1.0
- -1.0
- -1.0
- -1.0
- -1.0
- -1.0
- -1.0
- -1.0
angular_velocity:
  x: 0.013582121559404112
  y: -0.0021305288720633903
  z: -0.003728425526110933
angular_velocity_covariance:
- 0.0
- 0.0
- 0.0
- 0.0
- 0.0
- 0.0
- 0.0
- 0.0
- 0.0
linear_acceleration:
  x: -0.204774169921875
  y: -0.288599853515625
  z: 9.969268798828125
linear_acceleration_covariance:
- 0.0
- 0.0
- 0.0
- 0.0
- 0.0
- 0.0
- 0.0
- 0.0
- 0.0
---
header:
  stamp:
    sec: 1664959677
    nanosec: 689868192
  frame_id: Waveshare_Sense_HAT_B/IMU
orientation:
  x: -0.7717442873342943
  y: -0.635860393695319
  z: 0.00932396138828402
  w: 0.0023191465124266066
orientation_covariance:
- -1.0
- -1.0
- -1.0
- -1.0
- -1.0
- -1.0
- -1.0
- -1.0
- -1.0
angular_velocity:
  x: 0.014913702104443732
  y: 0.009587379924285256
  z: 0.005060006071150552
angular_velocity_covariance:
- 0.0
- 0.0
- 0.0
- 0.0
- 0.0
- 0.0
- 0.0
- 0.0
- 0.0
linear_acceleration:
  x: -0.22034179687500002
  y: -0.276624755859375
  z: 9.956096191406251
linear_acceleration_covariance:
- 0.0
- 0.0
- 0.0
- 0.0
- 0.0
- 0.0
- 0.0
- 0.0
- 0.0
---
header:
  stamp:
    sec: 1664959677
    nanosec: 702004463
  frame_id: Waveshare_Sense_HAT_B/IMU
orientation:
  x: -0.7717925888742606
  y: -0.6358010714839931
  z: 0.009351478356953864
  w: 0.0023973133112676326
orientation_covariance:
- -1.0
- -1.0
- -1.0
- -1.0
- -1.0
- -1.0
- -1.0
- -1.0
- -1.0
angular_velocity:
  x: 0.0034621094171030094
  y: 0.0015978966540475428
  z: 0.008522115488253561
angular_velocity_covariance:
- 0.0
- 0.0
- 0.0
- 0.0
- 0.0
- 0.0
- 0.0
- 0.0
- 0.0
linear_acceleration:
  x: -0.207169189453125
  y: -0.3113525390625
  z: 9.94651611328125
linear_acceleration_covariance:
- 0.0
- 0.0
- 0.0
- 0.0
- 0.0
- 0.0
- 0.0
- 0.0
- 0.0
---
header:
  stamp:
    sec: 1664959677
    nanosec: 714143993
  frame_id: Waveshare_Sense_HAT_B/IMU
orientation:
  x: -0.7718651441803015
  y: -0.6357114808936589
  z: 0.009442180699587487
  w: 0.0024407955976996766
orientation_covariance:
- -1.0
- -1.0
- -1.0
- -1.0
- -1.0
- -1.0
- -1.0
- -1.0
- -1.0
angular_velocity:
  x: 0.004527373853134705
  y: -0.009321063815277333
  z: 0.015180018213451656
angular_velocity_covariance:
- 0.0
- 0.0
- 0.0
- 0.0
- 0.0
- 0.0
- 0.0
- 0.0
- 0.0
linear_acceleration:
  x: -0.19878662109375
  y: -0.34129028320312504
  z: 9.935738525390626
linear_acceleration_covariance:
- 0.0
- 0.0
- 0.0
- 0.0
- 0.0
- 0.0
- 0.0
- 0.0
- 0.0
---
header:
  stamp:
    sec: 1664959677
    nanosec: 726261653
  frame_id: Waveshare_Sense_HAT_B/IMU
orientation:
  x: -0.7719584043473856
  y: -0.6355965209557365
  z: 0.0095532318409486
  w: 0.0024536234012875156
orientation_covariance:
- -1.0
- -1.0
- -1.0
- -1.0
- -1.0
- -1.0
- -1.0
- -1.0
- -1.0
angular_velocity:
  x: 0.0034621094171030094
  y: -0.01411475377741996
  z: 0.020772656502618055
angular_velocity_covariance:
- 0.0
- 0.0
- 0.0
- 0.0
- 0.0
- 0.0
- 0.0
- 0.0
- 0.0
linear_acceleration:
  x: -0.204774169921875
  y: -0.33410522460937503
  z: 9.957293701171876
linear_acceleration_covariance:
- 0.0
- 0.0
- 0.0
- 0.0
- 0.0
- 0.0
- 0.0
- 0.0
- 0.0
---
header:
  stamp:
    sec: 1664959677
    nanosec: 738367906
  frame_id: Waveshare_Sense_HAT_B/IMU
orientation:
  x: -0.7720204493751556
  y: -0.6355201859326204
  z: 0.009606313595797724
  w: 0.0024975503698335334
orientation_covariance:
- -1.0
- -1.0
- -1.0
- -1.0
- -1.0
- -1.0
- -1.0
- -1.0
- -1.0
angular_velocity:
  x: -0.0005326322180158476
  y: -0.004527373853134705
  z: 0.012783173232380343
angular_velocity_covariance:
- 0.0
- 0.0
- 0.0
- 0.0
- 0.0
- 0.0
- 0.0
- 0.0
- 0.0
linear_acceleration:
  x: -0.19160156250000002
  y: -0.377215576171875
  z: 9.969268798828125
linear_acceleration_covariance:
- 0.0
- 0.0
- 0.0
- 0.0
- 0.0
- 0.0
- 0.0
- 0.0
- 0.0
---
header:
  stamp:
    sec: 1664959677
    nanosec: 750499177
  frame_id: Waveshare_Sense_HAT_B/IMU
orientation:
  x: -0.7720882282371466
  y: -0.6354361268232132
  z: 0.00972491822091556
  w: 0.002474370856096554
orientation_covariance:
- -1.0
- -1.0
- -1.0
- -1.0
- -1.0
- -1.0
- -1.0
- -1.0
- -1.0
angular_velocity:
  x: -0.0026631610900792377
  y: -0.020506340393610132
  z: 0.013848437668412037
angular_velocity_covariance:
- 0.0
- 0.0
- 0.0
- 0.0
- 0.0
- 0.0
- 0.0
- 0.0
- 0.0
linear_acceleration:
  x: -0.19399658203125
  y: -0.38200561523437504
  z: 9.976453857421875
linear_acceleration_covariance:
- 0.0
- 0.0
- 0.0
- 0.0
- 0.0
- 0.0
- 0.0
- 0.0
- 0.0
---
header:
  stamp:
    sec: 1664959677
    nanosec: 762650614
  frame_id: Waveshare_Sense_HAT_B/IMU
orientation:
  x: -0.7721065774277782
  y: -0.6354125616723256
  z: 0.009810891962949845
  w: 0.002460886154800085
orientation_covariance:
- -1.0
- -1.0
- -1.0
- -1.0
- -1.0
- -1.0
- -1.0
- -1.0
- -1.0
angular_velocity:
  x: -0.004527373853134705
  y: -0.016511598758491276
  z: 0.0013315805450396189
angular_velocity_covariance:
- 0.0
- 0.0
- 0.0
- 0.0
- 0.0
- 0.0
- 0.0
- 0.0
- 0.0
linear_acceleration:
  x: -0.17603393554687502
  y: -0.37601806640625
  z: 9.97525634765625
linear_acceleration_covariance:
- 0.0
- 0.0
- 0.0
- 0.0
- 0.0
- 0.0
- 0.0
- 0.0
- 0.0
---
header:
  stamp:
    sec: 1664959677
    nanosec: 774757052
  frame_id: Waveshare_Sense_HAT_B/IMU
orientation:
  x: -0.7721263819943586
  y: -0.6353879254070812
  z: 0.00984638388078423
  w: 0.0024664143324121656
orientation_covariance:
- -1.0
- -1.0
- -1.0
- -1.0
- -1.0
- -1.0
- -1.0
- -1.0
- -1.0
angular_velocity:
  x: -0.006924218834206019
  y: -0.008788431597261484
  z: 0.0015978966540475428
angular_velocity_covariance:
- 0.0
- 0.0
- 0.0
- 0.0
- 0.0
- 0.0
- 0.0
- 0.0
- 0.0
linear_acceleration:
  x: -0.16525634765625
  y: -0.3688330078125
  z: 9.974058837890626
linear_acceleration_covariance:
- 0.0
- 0.0
- 0.0
- 0.0
- 0.0
- 0.0
- 0.0
- 0.0
- 0.0
---
header:
  stamp:
    sec: 1664959677
    nanosec: 786862546
  frame_id: Waveshare_Sense_HAT_B/IMU
orientation:
  x: -0.7720943623176241
  y: -0.6354268554238403
  z: 0.009844595146037742
  w: 0.0024680011997965374
orientation_covariance:
- -1.0
- -1.0
- -1.0
- -1.0
- -1.0
- -1.0
- -1.0
- -1.0
- -1.0
angular_velocity:
  x: -0.011717908796348646
  y: -0.003994741635118856
  z: -0.0111852765783328
angular_velocity_covariance:
- 0.0
- 0.0
- 0.0
- 0.0
- 0.0
- 0.0
- 0.0
- 0.0
- 0.0
linear_acceleration:
  x: -0.16525634765625
  y: -0.38320312500000003
  z: 9.971663818359376
linear_acceleration_covariance:
- 0.0
- 0.0
- 0.0
- 0.0
- 0.0
- 0.0
- 0.0
- 0.0
- 0.0
---
header:
  stamp:
    sec: 1664959677
    nanosec: 798969817
  frame_id: Waveshare_Sense_HAT_B/IMU
orientation:
  x: -0.7720374216628981
  y: -0.6354955702986282
  z: 0.009860813409315692
  w: 0.0025227052606380178
orientation_covariance:
- -1.0
- -1.0
- -1.0
- -1.0
- -1.0
- -1.0
- -1.0
- -1.0
- -1.0
angular_velocity:
  x: -0.003994741635118856
  y: -0.0015978966540475428
  z: -0.01810949541253882
angular_velocity_covariance:
- 0.0
- 0.0
- 0.0
- 0.0
- 0.0
- 0.0
- 0.0
- 0.0
- 0.0
linear_acceleration:
  x: -0.17483642578125
  y: -0.389190673828125
  z: 9.976453857421875
linear_acceleration_covariance:
- 0.0
- 0.0
- 0.0
- 0.0
- 0.0
- 0.0
- 0.0
- 0.0
- 0.0
---
header:
  stamp:
    sec: 1664959677
    nanosec: 811072274
  frame_id: Waveshare_Sense_HAT_B/IMU
orientation:
  x: -0.7719621678641082
  y: -0.63558730102478
  z: 0.00981851640382465
  w: 0.002605935189062131
orientation_covariance:
- -1.0
- -1.0
- -1.0
- -1.0
- -1.0
- -1.0
- -1.0
- -1.0
- -1.0
angular_velocity:
  x: -0.005060006071150552
  y: 0.008522115488253561
  z: -0.022636869265673522
angular_velocity_covariance:
- 0.0
- 0.0
- 0.0
- 0.0
- 0.0
- 0.0
- 0.0
- 0.0
- 0.0
linear_acceleration:
  x: -0.16525634765625
  y: -0.36404296875000003
  z: 9.98962646484375
linear_acceleration_covariance:
- 0.0
- 0.0
- 0.0
- 0.0
- 0.0
- 0.0
- 0.0
- 0.0
- 0.0
---
header:
  stamp:
    sec: 1664959677
    nanosec: 823185675
  frame_id: Waveshare_Sense_HAT_B/IMU
orientation:
  x: -0.7718642260490726
  y: -0.635706672287548
  z: 0.009761039725594986
  w: 0.0027139377726443596
orientation_covariance:
- -1.0
- -1.0
- -1.0
- -1.0
- -1.0
- -1.0
- -1.0
- -1.0
- -1.0
angular_velocity:
  x: -0.003728425526110933
  y: 0.011984224905356571
  z: -0.028762139772855768
angular_velocity_covariance:
- 0.0
- 0.0
- 0.0
- 0.0
- 0.0
- 0.0
- 0.0
- 0.0
- 0.0
linear_acceleration:
  x: -0.159268798828125
  y: -0.36284545898437504
  z: 9.971663818359376
linear_acceleration_covariance:
- 0.0
- 0.0
- 0.0
- 0.0
- 0.0
- 0.0
- 0.0
- 0.0
- 0.0
---
header:
  stamp:
    sec: 1664959677
    nanosec: 835330501
  frame_id: Waveshare_Sense_HAT_B/IMU
orientation:
  x: -0.771812207668473
  y: -0.6357705461325726
  z: 0.009682404864920694
  w: 0.0028248540210443224
orientation_covariance:
- -1.0
- -1.0
- -1.0
- -1.0
- -1.0
- -1.0
- -1.0
- -1.0
- -1.0
angular_velocity:
  x: -0.0055926382891664
  y: 0.014913702104443732
  z: -0.017310547085515045
angular_velocity_covariance:
- 0.0
- 0.0
- 0.0
- 0.0
- 0.0
- 0.0
- 0.0
- 0.0
- 0.0
linear_acceleration:
  x: -0.1580712890625
  y: -0.365240478515625
  z: 9.954898681640625
linear_acceleration_covariance:
- 0.0
- 0.0
- 0.0
- 0.0
- 0.0
- 0.0
- 0.0
- 0.0
- 0.0
---
header:
  stamp:
    sec: 1664959677
    nanosec: 847443809
  frame_id: Waveshare_Sense_HAT_B/IMU
orientation:
  x: -0.7717443610897411
  y: -0.6358541495060751
  z: 0.009555404532311722
  w: 0.002972528606613101
orientation_covariance:
- -1.0
- -1.0
- -1.0
- -1.0
- -1.0
- -1.0
- -1.0
- -1.0
- -1.0
angular_velocity:
  x: -0.004793689962142628
  y: 0.025033714246744835
  z: -0.021305288720633902
angular_velocity_covariance:
- 0.0
- 0.0
- 0.0
- 0.0
- 0.0
- 0.0
- 0.0
- 0.0
- 0.0
linear_acceleration:
  x: -0.15567626953125
  y: -0.34248779296875004
  z: 9.962083740234375
linear_acceleration_covariance:
- 0.0
- 0.0
- 0.0
- 0.0
- 0.0
- 0.0
- 0.0
- 0.0
- 0.0
---
header:
  stamp:
    sec: 1664959677
    nanosec: 859567191
  frame_id: Waveshare_Sense_HAT_B/IMU
orientation:
  x: -0.7717144557261815
  y: -0.6358918841623582
  z: 0.00941709402130332
  w: 0.0031030339804085927
orientation_covariance:
- -1.0
- -1.0
- -1.0
- -1.0
- -1.0
- -1.0
- -1.0
- -1.0
- -1.0
angular_velocity:
  x: -0.007456851052221866
  y: 0.02583266257376861
  z: -0.011451592687340723
angular_velocity_covariance:
- 0.0
- 0.0
- 0.0
- 0.0
- 0.0
- 0.0
- 0.0
- 0.0
- 0.0
linear_acceleration:
  x: -0.16166381835937502
  y: -0.335302734375
  z: 9.9680712890625
linear_acceleration_covariance:
- 0.0
- 0.0
- 0.0
- 0.0
- 0.0
- 0.0
- 0.0
- 0.0
- 0.0
---
header:
  stamp:
    sec: 1664959677
    nanosec: 871678833
  frame_id: Waveshare_Sense_HAT_B/IMU
orientation:
  x: -0.7716574753937435
  y: -0.635962134982075
  z: 0.00928601658110169
  w: 0.003267022199309121
orientation_covariance:
- -1.0
- -1.0
- -1.0
- -1.0
- -1.0
- -1.0
- -1.0
- -1.0
- -1.0
angular_velocity:
  x: -0.0029294771990871615
  y: 0.0268979270098003
  z: -0.018642127630554665
angular_velocity_covariance:
- 0.0
- 0.0
- 0.0
- 0.0
- 0.0
- 0.0
- 0.0
- 0.0
- 0.0
linear_acceleration:
  x: -0.144898681640625
  y: -0.33769775390625
  z: 9.972861328125001
linear_acceleration_covariance:
- 0.0
- 0.0
- 0.0
- 0.0
- 0.0
- 0.0
- 0.0
- 0.0
- 0.0
---
header:
  stamp:
    sec: 1664959677
    nanosec: 883824066
  frame_id: Waveshare_Sense_HAT_B/IMU
orientation:
  x: -0.7716417488875122
  y: -0.6359813193393345
  z: 0.009233973184964703
  w: 0.0033921327273937736
orientation_covariance:
- -1.0
- -1.0
- -1.0
- -1.0
- -1.0
- -1.0
- -1.0
- -1.0
- -1.0
angular_velocity:
  x: 0.0002663161090079238
  y: 0.012783173232380343
  z: -0.007989483270237713
angular_velocity_covariance:
- 0.0
- 0.0
- 0.0
- 0.0
- 0.0
- 0.0
- 0.0
- 0.0
- 0.0
linear_acceleration:
  x: -0.1293310546875
  y: -0.34129028320312504
  z: 9.972861328125001
linear_acceleration_covariance:
- 0.0
- 0.0
- 0.0
- 0.0
- 0.0
- 0.0
- 0.0
- 0.0
- 0.0
---
header:
  stamp:
    sec: 1664959677
    nanosec: 895933393
  frame_id: Waveshare_Sense_HAT_B/IMU
orientation:
  x: -0.7716254661998435
  y: -0.6360016590930265
  z: 0.009145614559541547
  w: 0.0035195563811623353
orientation_covariance:
- -1.0
- -1.0
- -1.0
- -1.0
- -1.0
- -1.0
- -1.0
- -1.0
- -1.0
angular_velocity:
  x: -0.0013315805450396189
  y: 0.017843179303530892
  z: -0.008255799379245638
angular_velocity_covariance:
- 0.0
- 0.0
- 0.0
- 0.0
- 0.0
- 0.0
- 0.0
- 0.0
- 0.0
linear_acceleration:
  x: -0.13651611328125002
  y: -0.30416748046875003
  z: 10.011181640625
linear_acceleration_covariance:
- 0.0
- 0.0
- 0.0
- 0.0
- 0.0
- 0.0
- 0.0
- 0.0
- 0.0
---
header:
  stamp:
    sec: 1664959677
    nanosec: 908036016
  frame_id: Waveshare_Sense_HAT_B/IMU
orientation:
  x: -0.7716044388066593
  y: -0.6360274407047688
  z: 0.009103043677868383
  w: 0.003580402240136978
orientation_covariance:
- -1.0
- -1.0
- -1.0
- -1.0
- -1.0
- -1.0
- -1.0
- -1.0
- -1.0
angular_velocity:
  x: -0.0042610577441267805
  y: 0.0053263221801584755
  z: -0.009587379924285256
angular_velocity_covariance:
- 0.0
- 0.0
- 0.0
- 0.0
- 0.0
- 0.0
- 0.0
- 0.0
- 0.0
linear_acceleration:
  x: -0.143701171875
  y: -0.28740234375
  z: 10.005194091796875
linear_acceleration_covariance:
- 0.0
- 0.0
- 0.0
- 0.0
- 0.0
- 0.0
- 0.0
- 0.0
- 0.0
---
header:
  stamp:
    sec: 1664959677
    nanosec: 920134788
  frame_id: Waveshare_Sense_HAT_B/IMU
orientation:
  x: -0.7715711104230948
  y: -0.6360677606129842
  z: 0.009095240117093489
  w: 0.003619679055986184
orientation_covariance:
- -1.0
- -1.0
- -1.0
- -1.0
- -1.0
- -1.0
- -1.0
- -1.0
- -1.0
angular_velocity:
  x: -0.0026631610900792377
  y: 0.0002663161090079238
  z: -0.012250541014364494
angular_velocity_covariance:
- 0.0
- 0.0
- 0.0
- 0.0
- 0.0
- 0.0
- 0.0
- 0.0
- 0.0
linear_acceleration:
  x: -0.1580712890625
  y: -0.276624755859375
  z: 10.007589111328125
linear_acceleration_covariance:
- 0.0
- 0.0
- 0.0
- 0.0
- 0.0
- 0.0
- 0.0
- 0.0
- 0.0
---
header:
  stamp:
    sec: 1664959677
    nanosec: 932240115
  frame_id: Waveshare_Sense_HAT_B/IMU
orientation:
  x: -0.7714806494919172
  y: -0.6361765235844957
  z: 0.009165623210240751
  w: 0.003609660737954542
orientation_covariance:
- -1.0
- -1.0
- -1.0
- -1.0
- -1.0
- -1.0
- -1.0
- -1.0
- -1.0
angular_velocity:
  x: -0.0007989483270237714
  y: -0.014381069886427884
  z: -0.02609897868277653
angular_velocity_covariance:
- 0.0
- 0.0
- 0.0
- 0.0
- 0.0
- 0.0
- 0.0
- 0.0
- 0.0
linear_acceleration:
  x: -0.1484912109375
  y: -0.28021728515625
  z: 10.0255517578125
linear_acceleration_covariance:
- 0.0
- 0.0
- 0.0
- 0.0
- 0.0
- 0.0
- 0.0
- 0.0
- 0.0
---
header:
  stamp:
    sec: 1664959677
    nanosec: 944349534
  frame_id: Waveshare_Sense_HAT_B/IMU
orientation:
  x: -0.7714087725120058
  y: -0.6362622583750808
  z: 0.0092814269607939
  w: 0.0035636178995248034
orientation_covariance:
- -1.0
- -1.0
- -1.0
- -1.0
- -1.0
- -1.0
- -1.0
- -1.0
- -1.0
angular_velocity:
  x: -0.0010652644360316951
  y: -0.022636869265673522
  z: -0.020772656502618055
angular_velocity_covariance:
- 0.0
- 0.0
- 0.0
- 0.0
- 0.0
- 0.0
- 0.0
- 0.0
- 0.0
linear_acceleration:
  x: -0.15208374023437501
  y: -0.296982421875
  z: 10.02315673828125
linear_acceleration_covariance:
- 0.0
- 0.0
- 0.0
- 0.0
- 0.0
- 0.0
- 0.0
- 0.0
- 0.0
---
header:
  stamp:
    sec: 1664959677
    nanosec: 956523656
  frame_id: Waveshare_Sense_HAT_B/IMU
orientation:
  x: -0.7713551661923503
  y: -0.6363255681880268
  z: 0.009406689346527332
  w: 0.0035345514700925217
orientation_covariance:
- -1.0
- -1.0
- -1.0
- -1.0
- -1.0
- -1.0
- -1.0
- -1.0
- -1.0
angular_velocity:
  x: 0.0013315805450396189
  y: -0.021837920938649752
  z: -0.016245282649483352
angular_velocity_covariance:
- 0.0
- 0.0
- 0.0
- 0.0
- 0.0
- 0.0
- 0.0
- 0.0
- 0.0
linear_acceleration:
  x: -0.162861328125
  y: -0.3113525390625
  z: 10.012379150390625
linear_acceleration_covariance:
- 0.0
- 0.0
- 0.0
- 0.0
- 0.0
- 0.0
- 0.0
- 0.0
- 0.0
---
header:
  stamp:
    sec: 1664959677
    nanosec: 968634020
  frame_id: Waveshare_Sense_HAT_B/IMU
orientation:
  x: -0.7712871131754728
  y: -0.6364063693818776
  z: 0.00956200070728571
  w: 0.0034190937536233393
orientation_covariance:
- -1.0
- -1.0
- -1.0
- -1.0
- -1.0
- -1.0
- -1.0
- -1.0
- -1.0
angular_velocity:
  x: -0.006391586616190171
  y: -0.034088461953014244
  z: -0.019973708175594285
angular_velocity_covariance:
- 0.0
- 0.0
- 0.0
- 0.0
- 0.0
- 0.0
- 0.0
- 0.0
- 0.0
linear_acceleration:
  x: -0.17962646484375
  y: -0.3113525390625
  z: 9.998009033203125
linear_acceleration_covariance:
- 0.0
- 0.0
- 0.0
- 0.0
- 0.0
- 0.0
- 0.0
- 0.0
- 0.0
---
header:
  stamp:
    sec: 1664959677
    nanosec: 980744106
  frame_id: Waveshare_Sense_HAT_B/IMU
orientation:
  x: -0.7712038455320337
  y: -0.6365062693532051
  z: 0.00966523411392086
  w: 0.003313753188021435
orientation_covariance:
- -1.0
- -1.0
- -1.0
- -1.0
- -1.0
- -1.0
- -1.0
- -1.0
- -1.0
angular_velocity:
  x: -0.010386328251309028
  y: -0.026631610900792378
  z: -0.02370213370170522
angular_velocity_covariance:
- 0.0
- 0.0
- 0.0
- 0.0
- 0.0
- 0.0
- 0.0
- 0.0
- 0.0
linear_acceleration:
  x: -0.17603393554687502
  y: -0.31255004882812504
  z: 10.005194091796875
linear_acceleration_covariance:
- 0.0
- 0.0
- 0.0
- 0.0
- 0.0
- 0.0
- 0.0
- 0.0
- 0.0
---
header:
  stamp:
    sec: 1664959677
    nanosec: 992862174
  frame_id: Waveshare_Sense_HAT_B/IMU
orientation:
  x: -0.7711481443885582
  y: -0.6365726520672456
  z: 0.009765145918079303
  w: 0.003231094451637018
orientation_covariance:
- -1.0
- -1.0
- -1.0
- -1.0
- -1.0
- -1.0
- -1.0
- -1.0
- -1.0
angular_velocity:
  x: -0.009587379924285256
  y: -0.02450108202872899
  z: -0.0167779148674992
angular_velocity_covariance:
- 0.0
- 0.0
- 0.0
- 0.0
- 0.0
- 0.0
- 0.0
- 0.0
- 0.0
linear_acceleration:
  x: -0.16525634765625
  y: -0.34727783203125
  z: 9.952503662109375
linear_acceleration_covariance:
- 0.0
- 0.0
- 0.0
- 0.0
- 0.0
- 0.0
- 0.0
- 0.0
- 0.0
---
header:
  stamp:
    sec: 1664959678
    nanosec: 5004685
  frame_id: Waveshare_Sense_HAT_B/IMU
orientation:
  x: -0.771139501530627
  y: -0.6365822687650455
  z: 0.009839104557954689
  w: 0.003174317964628518
orientation_covariance:
- -1.0
- -1.0
- -1.0
- -1.0
- -1.0
- -1.0
- -1.0
- -1.0
- -1.0
angular_velocity:
  x: -0.00905474770626941
  y: -0.01890844373956259
  z: -0.005060006071150552
angular_velocity_covariance:
- 0.0
- 0.0
- 0.0
- 0.0
- 0.0
- 0.0
- 0.0
- 0.0
- 0.0
linear_acceleration:
  x: -0.16166381835937502
  y: -0.348475341796875
  z: 9.95130615234375
linear_acceleration_covariance:
- 0.0
- 0.0
- 0.0
- 0.0
- 0.0
- 0.0
- 0.0
- 0.0
- 0.0
---
header:
  stamp:
    sec: 1664959678
    nanosec: 17108567
  frame_id: Waveshare_Sense_HAT_B/IMU
orientation:
  x: -0.771176595981265
  y: -0.6365366627433257
  z: 0.009904958156700524
  w: 0.003102675982569491
orientation_covariance:
- -1.0
- -1.0
- -1.0
- -1.0
- -1.0
- -1.0
- -1.0
- -1.0
- -1.0
angular_velocity:
  x: -0.011451592687340723
  y: -0.019973708175594285
  z: 0.006125270507182247
angular_velocity_covariance:
- 0.0
- 0.0
- 0.0
- 0.0
- 0.0
- 0.0
- 0.0
- 0.0
- 0.0
linear_acceleration:
  x: -0.162861328125
  y: -0.3400927734375
  z: 9.950108642578126
linear_acceleration_covariance:
- 0.0
- 0.0
- 0.0
- 0.0
- 0.0
- 0.0
- 0.0
- 0.0
- 0.0
---
header:
  stamp:
    sec: 1664959678
    nanosec: 29216691
  frame_id: Waveshare_Sense_HAT_B/IMU
orientation:
  x: -0.7712499363619278
  y: -0.6364472093594185
  z: 0.009952959090571173
  w: 0.0030698478256010837
orientation_covariance:
- -1.0
- -1.0
- -1.0
- -1.0
- -1.0
- -1.0
- -1.0
- -1.0
- -1.0
angular_velocity:
  x: -0.007989483270237713
  y: -0.013049489341388266
  z: 0.015180018213451656
angular_velocity_covariance:
- 0.0
- 0.0
- 0.0
- 0.0
- 0.0
- 0.0
- 0.0
- 0.0
- 0.0
linear_acceleration:
  x: -0.1772314453125
  y: -0.3305126953125
  z: 9.942923583984376
linear_acceleration_covariance:
- 0.0
- 0.0
- 0.0
- 0.0
- 0.0
- 0.0
- 0.0
- 0.0
- 0.0
---
header:
  stamp:
    sec: 1664959678
    nanosec: 41319629
  frame_id: Waveshare_Sense_HAT_B/IMU
orientation:
  x: -0.7713274222318363
  y: -0.6363525310245745
  z: 0.010012453562792623
  w: 0.0030355799217914444
orientation_covariance:
- -1.0
- -1.0
- -1.0
- -1.0
- -1.0
- -1.0
- -1.0
- -1.0
- -1.0
angular_velocity:
  x: -0.0077231671612297895
  y: -0.015180018213451656
  z: 0.015978966540475426
angular_velocity_covariance:
- 0.0
- 0.0
- 0.0
- 0.0
- 0.0
- 0.0
- 0.0
- 0.0
- 0.0
linear_acceleration:
  x: -0.17603393554687502
  y: -0.34248779296875004
  z: 9.930948486328125
linear_acceleration_covariance:
- 0.0
- 0.0
- 0.0
- 0.0
- 0.0
- 0.0
- 0.0
- 0.0
- 0.0
---
header:
  stamp:
    sec: 1664959678
    nanosec: 53421307
  frame_id: Waveshare_Sense_HAT_B/IMU
orientation:
  x: -0.7713641236133248
  y: -0.6363066132655855
  z: 0.010113407697031663
  w: 0.0030002835669321135
orientation_covariance:
- -1.0
- -1.0
- -1.0
- -1.0
- -1.0
- -1.0
- -1.0
- -1.0
- -1.0
angular_velocity:
  x: -0.0031957933080950856
  y: -0.020772656502618055
  z: 0.005858954398174323
angular_velocity_covariance:
- 0.0
- 0.0
- 0.0
- 0.0
- 0.0
- 0.0
- 0.0
- 0.0
- 0.0
linear_acceleration:
  x: -0.168848876953125
  y: -0.33290771484375004
  z: 9.934541015625001
linear_acceleration_covariance:
- 0.0
- 0.0
- 0.0
- 0.0
- 0.0
- 0.0
- 0.0
- 0.0
- 0.0
---
header:
  stamp:
    sec: 1664959678
    nanosec: 65534264
  frame_id: Waveshare_Sense_HAT_B/IMU
orientation:
  x: -0.7714510672525716
  y: -0.6362001686426803
  z: 0.010168228382208601
  w: 0.0030337082029079283
orientation_covariance:
- -1.0
- -1.0
- -1.0
- -1.0
- -1.0
- -1.0
- -1.0
- -1.0
- -1.0
angular_velocity:
  x: 0.0002663161090079238
  y: -0.007989483270237713
  z: 0.018642127630554665
